nom,lat,lon,comarca,altitud,temperatura,temp_max,temp_min,humitat,precipitacio,vent,data
Albesa,41.76034,0.67022,Noguera,268,12.8,22.9,7.4,63.0,0.0,,2026-05-13T21:00:00.000
Alcarràs,41.56505,0.55029,Segrià,125,14.7,22.8,8.8,58.0,0.0,,2026-05-13T21:00:00.000
Aldover,40.85936,0.50525,Baix Ebre,53,15.8,23.3,14.9,59.0,0.0,,2026-05-13T21:00:00.000
Alfarràs,41.81952,0.57767,Segrià,269,12.9,22.5,7.3,64.0,0.0,,2026-05-13T21:00:00.000
Algerri,41.80106,0.64801,Noguera,301,12.5,21.1,8.0,63.0,0.0,,2026-05-13T21:00:00.000
Alguaire,41.7428,0.53578,Segrià,371,11.9,21.1,6.8,64.0,0.0,4.4,2026-05-13T21:00:00.000
Alinyà,42.17427,1.42769,Alt Urgell,1161,10.4,14.5,6.5,69.0,0.0,,2026-05-13T21:00:00.000
Amposta,40.70776,0.63211,Montsià,3,18.1,22.3,15.8,60.0,0.0,1.5,2026-05-13T21:00:00.000
Anglesola - Tornabous,41.68834,1.04477,Urgell,292,13.8,20.3,9.2,60.0,0.0,,2026-05-13T21:00:00.000
Anglès,41.96093,2.6311,Selva,151,13.8,20.2,8.6,96.0,0.0,0.6,2026-05-13T21:00:00.000
Artés,41.79424,1.93683,Bages,287,13.9,19.9,9.0,72.0,0.0,,2026-05-13T21:00:00.000
Ascó,41.1964,0.51101,Ribera d'Ebre,258,15.6,20.8,11.1,47.0,0.0,,2026-05-13T21:00:00.000
Badalona - Museu,41.45215,2.24757,Barcelonès,42,16.8,18.3,13.6,73.0,0.0,,2026-05-13T21:00:00.000
Baldomar,41.92173,1.02901,Noguera,366,12.4,20.4,8.6,64.0,0.0,,2026-05-13T21:00:00.000
Banyoles,42.11655,2.78971,Pla de l'Estany,178,15.3,19.4,9.4,78.0,0.0,1.6,2026-05-13T21:00:00.000
Barcelona - Observatori Fabra,41.41864,2.12379,Barcelonès,410,12.9,19.2,10.6,92.0,0.0,3.4,2026-05-13T21:00:00.000
Barcelona - Zona Universitària,41.37922,2.10537,Barcelonès,82,16.1,21.6,13.2,76.0,0.0,1.4,2026-05-13T21:00:00.000
Barcelona - el Raval,41.38386,2.16774,Barcelonès,33,17.3,20.3,14.9,71.0,0.0,1.6,2026-05-13T21:00:00.000
Batea,41.08318,0.31694,Terra Alta,403,13.1,19.3,9.6,57.0,0.0,,2026-05-13T21:00:00.000
Benissanet,41.06303,0.6355,Ribera d'Ebre,34,15.3,23.3,12.6,56.0,0.0,1.9,2026-05-13T21:00:00.000
Blancafort,41.44237,1.15998,Conca de Barberà,437,13.4,19.5,8.6,55.0,0.0,,2026-05-13T21:00:00.000
Bonaigua (2.262 m),42.64691,0.98486,Pallars Sobirà,2262,-0.3,0.5,-3.2,100.0,0.0,,2026-05-13T21:00:00.000
Boí (2.537 m),42.46603,0.88403,Alta Ribagorça,2537,-0.2,2.7,-3.1,94.0,0.0,,2026-05-13T21:00:00.000
Cabanes,42.32038,2.9564,Alt Empordà,35,15.0,20.8,13.2,89.0,0.0,,2026-05-13T21:00:00.000
Cabrils,41.51773,2.37702,Maresme,81,14.3,19.2,12.0,100.0,0.0,1.2,2026-05-13T21:00:00.000
Cadí Nord (2.145 m) - Prat d'Aguiló,42.29265,1.71498,Cerdanya,2145,2.8,5.9,-1.4,96.0,0.0,1.6,2026-05-13T21:00:00.000
Caldes de Montbui,41.61264,2.1683,Vallès Oriental,177,12.9,21.0,11.2,100.0,0.0,1.2,2026-05-13T21:00:00.000
Camarasa,41.9178,0.88175,Noguera,669,10.5,19.5,7.3,69.0,0.0,,2026-05-13T21:00:00.000
Canaletes,41.48518,1.69341,Alt Penedès,325,12.5,19.9,9.2,91.0,0.0,,2026-05-13T21:00:00.000
Cantonigròs,42.04264,2.40474,Osona,927,10.3,13.8,6.4,92.0,0.0,0.9,2026-05-13T21:00:00.000
Canyelles,41.288,1.72201,Garraf,150,15.7,21.4,10.9,61.0,0.0,1.0,2026-05-13T21:00:00.000
Cardona,41.92044,1.69586,Bages,402,13.9,19.2,8.4,66.0,0.0,,2026-05-13T21:00:00.000
Cassà de la Selva,41.87448,2.92695,Gironès,178,13.3,17.2,8.5,93.0,0.0,,2026-05-13T21:00:00.000
Castell d'Aro,41.80855,3.03241,Baix Empordà,14,16.8,19.8,11.1,76.0,0.0,1.4,2026-05-13T21:00:00.000
Castellar de n'Hug - el Clot del Moro,42.25943,1.9761,Berguedà,940,10.7,15.2,4.3,98.0,0.0,,2026-05-13T21:00:00.000
Castellbisbal,41.47892,1.97546,Vallès Occidental,146,14.9,21.6,11.2,81.0,0.0,1.0,2026-05-13T21:00:00.000
Castellnou de Bages,41.83094,1.84699,Bages,507,13.9,18.8,8.5,63.0,0.0,0.6,2026-05-13T21:00:00.000
Castellnou de Seana,41.65662,0.95172,Pla d'Urgell,264,14.6,21.4,9.2,55.0,0.0,5.2,2026-05-13T21:00:00.000
Castelló d'Empúries,42.24726,3.09022,Alt Empordà,5,15.8,20.4,11.3,89.0,0.0,,2026-05-13T21:00:00.000
Certascan (2.398 m),42.7003,1.272,Pallars Sobirà,2398,-1.1,0.5,-5.3,91.0,0.0,,2026-05-13T21:00:00.000
Cervera,41.67556,1.2961,Segarra,556,12.2,18.4,7.8,61.0,0.0,4.3,2026-05-13T21:00:00.000
Constantí,41.1713,1.16774,Tarragonès,113,16.9,23.3,11.1,45.0,0.0,2.2,2026-05-13T21:00:00.000
Cunit,41.20187,1.63346,Baix Penedès,18,16.3,21.5,12.4,58.0,0.0,1.2,2026-05-13T21:00:00.000
Das - Aeròdrom,42.38603,1.86639,Cerdanya,1096,10.0,16.7,2.4,65.0,0.0,3.0,2026-05-13T21:00:00.000
Dosrius - PN Montnegre Corredor,41.61991,2.44532,Maresme,462,12.3,23.4,10.2,92.0,0.0,,2026-05-13T21:00:00.000
Espolla,42.38443,3.00739,Alt Empordà,84,14.5,20.4,12.9,87.0,0.0,,2026-05-13T21:00:00.000
Espot (2.519 m),42.5341,1.05474,Pallars Sobirà,2519,-0.5,1.5,-2.1,95.0,0.0,1.0,2026-05-13T21:00:00.000
Falset,41.15374,0.81952,Priorat,358,14.5,20.5,9.4,51.0,0.0,3.4,2026-05-13T21:00:00.000
Fogars de la Selva,41.73892,2.69438,Selva,42,13.7,20.4,10.8,91.0,0.0,,2026-05-13T21:00:00.000
Font-rubí,41.4329,1.62386,Alt Penedès,414,12.5,20.2,9.7,85.0,0.0,1.6,2026-05-13T21:00:00.000
Fornells de la Selva,41.91461,2.82071,Gironès,97,13.6,20.2,8.8,96.0,0.0,,2026-05-13T21:00:00.000
Gandesa,41.06564,0.43006,Terra Alta,351,14.0,19.0,10.5,55.0,0.0,,2026-05-13T21:00:00.000
Gimenells,41.65825,0.3932,Segrià,260,14.0,21.5,8.7,53.0,0.0,,2026-05-13T21:00:00.000
Girona,41.98215,2.80552,Gironès,72,15.4,20.4,8.7,83.0,0.0,0.7,2026-05-13T21:00:00.000
Gisclareny,42.26478,1.76216,Berguedà,1388,6.7,13.8,2.5,99.0,0.0,,2026-05-13T21:00:00.000
Golmés,41.63641,0.92445,Pla d'Urgell,260,14.8,20.3,9.3,52.0,0.0,,2026-05-13T21:00:00.000
Granollers,41.60929,2.29847,Vallès Oriental,211,14.5,20.7,11.7,84.0,0.0,,2026-05-13T21:00:00.000
Guardiola de Berguedà,42.23414,1.87485,Berguedà,787,11.4,17.2,5.8,87.0,0.3,0.9,2026-05-13T20:30:00.000
Guixers - Valls,42.13595,1.67297,Solsonès,845,10.4,15.5,2.7,86.0,0.0,,2026-05-13T21:00:00.000
Horta de Sant Joan,40.95134,0.30563,Terra Alta,517,12.1,17.3,8.8,64.0,0.0,1.7,2026-05-13T21:00:00.000
Illa de Buda,40.70717,0.83447,Montsià,1,17.8,22.6,15.8,81.0,0.0,0.6,2026-05-13T21:00:00.000
Lac Redon (2.245 m),42.63836,0.7789,Val d'Aran,2245,-0.3,0.9,-3.5,98.0,0.0,5.0,2026-05-13T21:00:00.000
Lladurs,42.08745,1.42792,Solsonès,786,10.2,15.2,5.9,80.0,0.0,,2026-05-13T21:00:00.000
Lleida - la Femosa,41.58449,0.64217,Segrià,170,15.0,21.6,9.5,51.0,0.0,3.7,2026-05-13T21:00:00.000
Maials,41.35741,0.4809,Segrià,350,14.1,20.3,9.5,51.0,0.0,,2026-05-13T21:00:00.000
Malgrat de Mar,41.64706,2.75659,Maresme,3,17.0,20.1,12.6,77.0,0.0,2.0,2026-05-13T21:00:00.000
Malniu (2.229 m),42.46605,1.7785,Cerdanya,2229,1.9,5.8,-1.6,96.0,0.0,,2026-05-13T21:00:00.000
Margalef,41.28522,0.75387,Priorat,404,11.9,19.4,6.4,63.0,0.0,0.8,2026-05-13T21:00:00.000
Mas de Barberans,40.71822,0.39986,Montsià,241,16.8,20.5,14.2,49.0,0.0,2.7,2026-05-13T21:00:00.000
Massoteres,41.79405,1.30575,Segarra,512,11.4,19.0,8.2,69.0,0.0,3.9,2026-05-13T21:00:00.000
Mataró,41.54518,2.43322,Maresme,88,15.2,19.2,13.5,93.0,0.0,0.7,2026-05-13T21:00:00.000
Miami Platja,41.02066,0.9345,Baix Camp,43,17.4,23.0,13.6,45.0,0.0,2.2,2026-05-13T21:00:00.000
Mollerussa,41.61817,0.87182,Pla d'Urgell,246,14.8,20.9,9.4,53.0,0.0,,2026-05-13T21:00:00.000
Molló - Fabert,42.37718,2.41452,Ripollès,1405,6.2,9.1,2.4,100.0,0.0,1.0,2026-05-13T21:00:00.000
Montesquiu,42.11479,2.21481,Osona,683,11.6,18.5,5.4,93.0,0.0,,2026-05-13T21:00:00.000
Montsec d'Ares (1.571 m),42.0513,0.72952,Pallars Jussà,1571,7.2,8.9,3.4,62.0,0.0,1.9,2026-05-13T21:00:00.000
Montserrat - Sant Dimes,41.59539,1.8375,Bages,918,10.6,13.9,7.0,67.0,0.0,,2026-05-13T21:00:00.000
Muntanyola,41.8781,2.17875,Osona,816,11.9,15.9,7.6,72.0,0.0,4.3,2026-05-13T21:00:00.000
Navata,42.22792,2.86242,Alt Empordà,152,14.1,20.2,9.3,100.0,0.0,1.8,2026-05-13T21:00:00.000
Nulles,41.25095,1.29863,Alt Camp,239,16.7,21.8,9.6,46.0,0.0,,2026-05-13T21:00:00.000
Núria (1.971 m),42.39848,2.15517,Ripollès,1971,4.0,6.7,-0.7,99.0,0.0,0.9,2026-05-13T21:00:00.000
Oliana,42.07683,1.31489,Alt Urgell,491,12.9,18.2,7.0,67.0,0.0,,2026-05-13T21:00:00.000
Oliola,41.87694,1.1541,Noguera,444,12.2,19.3,7.8,68.0,0.0,,2026-05-13T21:00:00.000
Olot,42.18811,2.47094,Garrotxa,435,12.8,18.7,5.8,90.0,0.0,0.4,2026-05-13T21:00:00.000
Organyà,42.21622,1.33133,Alt Urgell,568,12.3,17.7,5.7,73.0,0.0,1.2,2026-05-13T21:00:00.000
Orís,42.07397,2.20865,Osona,627,12.1,18.7,6.1,88.0,0.0,0.4,2026-05-13T21:00:00.000
Os de Balaguer - el Monestir d'Avellanes,41.87912,0.76103,Noguera,577,9.7,20.2,6.9,73.0,0.0,,2026-05-13T21:00:00.000
PN del Garraf - el Rascler,41.28833,1.90773,Baix Llobregat,573,12.9,18.6,9.8,76.0,0.0,,2026-05-13T21:00:00.000
PN dels Ports,40.79705,0.31822,Baix Ebre,1056,8.7,12.9,6.0,72.0,0.0,4.7,2026-05-13T21:00:00.000
Palafrugell,41.90694,3.16073,Baix Empordà,35,16.0,18.6,11.0,80.0,0.0,2.6,2026-05-13T21:00:00.000
Pantà de Darnius - Boadella,42.34214,2.83425,Alt Empordà,159,14.9,20.2,10.8,87.0,0.0,0.9,2026-05-13T21:00:00.000
Pantà de Riba-roja,41.2441,0.4327,Ribera d'Ebre,77,17.7,21.3,13.2,44.0,0.0,,2026-05-13T21:00:00.000
Pantà de Siurana,41.2508,0.91063,Priorat,503,13.2,20.8,8.6,53.0,0.0,2.6,2026-05-13T21:00:00.000
Parets del Vallès,41.5673,2.22615,Vallès Oriental,118,15.5,21.3,12.3,83.0,0.0,1.0,2026-05-13T21:00:00.000
Perafita,42.03947,2.11993,Lluçanès,777,11.7,16.1,6.1,86.0,0.0,1.4,2026-05-13T21:00:00.000
Pinós,41.80483,1.53853,Solsonès,660,11.1,17.3,7.5,68.0,0.0,,2026-05-13T21:00:00.000
Port de Barcelona - ZAL Prat,41.31928,2.1372,Baix Llobregat,5,17.2,20.6,14.5,69.0,0.0,2.5,2026-05-13T21:00:00.000
Portbou - coll dels Belitres,42.43514,3.16619,Alt Empordà,198,15.7,18.6,12.8,61.0,0.0,3.5,2026-05-13T21:00:00.000
Prades,41.31481,0.98161,Baix Camp,927,9.2,15.1,4.7,65.0,0.0,,2026-05-13T21:00:00.000
Puig Sesolles (1.666 m),41.77362,2.43774,Vallès Oriental,1666,4.7,5.8,3.3,100.0,0.0,8.3,2026-05-13T21:00:00.000
Puigcerdà,42.44013,1.93482,Cerdanya,1214,8.6,15.5,3.2,69.0,0.0,0.6,2026-05-13T21:00:00.000
Pujalt,41.71735,1.42404,Anoia,748,10.5,16.4,6.5,66.0,0.0,4.3,2026-05-13T21:00:00.000
Raimat,41.68325,0.44871,Segrià,286,13.8,20.8,8.7,56.0,0.0,2.9,2026-05-13T21:00:00.000
Rellinars,41.63285,1.91718,Vallès Occidental,429,14.2,20.4,9.8,68.0,0.0,,2026-05-13T21:00:00.000
Riudecanyes,41.12267,0.96958,Baix Camp,171,17.0,22.1,11.9,44.0,0.0,3.2,2026-05-13T21:00:00.000
Roses,42.27068,3.18147,Alt Empordà,23,16.3,21.3,11.6,80.0,0.0,0.4,2026-05-13T21:00:00.000
Sabadell - Parc Agrari,41.56568,2.06955,Vallès Occidental,259,12.2,20.4,10.5,100.0,0.0,1.0,2026-05-13T21:00:00.000
Salòria (2.451 m),42.51939,1.36597,Pallars Sobirà,2451,-0.4,1.8,-4.6,95.0,0.0,1.1,2026-05-13T21:00:00.000
Sant Cugat del Vallès - CAR,41.48318,2.07947,Vallès Occidental,157,14.1,20.7,11.2,83.0,0.0,0.2,2026-05-13T21:00:00.000
Sant Llorenç Savall,41.68136,2.02655,Vallès Occidental,530,10.3,17.6,7.4,100.0,0.0,0.5,2026-05-13T21:00:00.000
Sant Martí Sarroca,41.37492,1.6303,Alt Penedès,257,13.1,21.3,8.6,81.0,0.0,,2026-05-13T21:00:00.000
Sant Martí de Riucorb,41.57236,1.0882,Urgell,414,13.4,19.1,8.8,58.0,0.0,,2026-05-13T21:00:00.000
Sant Pau de Segúries,42.25835,2.36426,Ripollès,853,9.9,13.9,3.6,97.0,0.0,0.2,2026-05-13T21:00:00.000
Sant Pere Pescador,42.17716,3.0968,Alt Empordà,3,15.0,20.9,10.9,93.0,0.0,0.3,2026-05-13T21:00:00.000
Sant Pere de Ribes - PN del Garraf,41.27861,1.80478,Garraf,164,14.5,21.9,11.3,74.0,0.0,,2026-05-13T21:00:00.000
Sant Romà d'Abella,42.13922,1.03894,Pallars Jussà,689,12.6,18.5,6.6,69.0,0.0,1.8,2026-05-13T21:00:00.000
Sant Sadurní d'Anoia,41.4353,1.79322,Alt Penedès,155,14.5,22.1,10.7,82.0,0.0,,2026-05-13T21:00:00.000
Sant Salvador de Guardiola,41.67403,1.76797,Bages,347,14.9,19.3,9.0,56.0,0.0,1.0,2026-05-13T21:00:00.000
Santa Coloma de Farners,41.86491,2.66444,Selva,165,15.3,19.1,10.0,80.0,0.0,1.1,2026-05-13T21:00:00.000
Santa Coloma de Queralt,41.52879,1.3683,Conca de Barberà,709,10.9,17.6,6.7,64.0,0.0,,2026-05-13T21:00:00.000
Santuari de Queralt,42.10736,1.8267,Berguedà,1169,9.6,12.1,4.8,74.0,0.0,2.0,2026-05-13T21:00:00.000
Sasseuva (2.226 m),42.77011,0.73198,Val d'Aran,2226,-0.8,1.7,-3.1,98.0,0.0,,2026-05-13T21:00:00.000
Seròs,41.46373,0.42766,Segrià,89,16.3,22.9,11.1,46.0,0.0,,2026-05-13T21:00:00.000
Solsona,41.98762,1.51159,Solsonès,692,11.1,17.0,7.4,67.0,0.0,1.7,2026-05-13T21:00:00.000
Sort,42.40537,1.12997,Pallars Sobirà,677,14.5,19.4,5.7,47.0,0.0,,2026-05-13T21:00:00.000
Tagamanent - PN del Montseny,41.7476,2.3029,Vallès Oriental,1030,8.8,13.0,6.8,90.0,0.0,,2026-05-13T21:00:00.000
Tarragona - Complex Educatiu,41.10392,1.201,Tarragonès,6,19.0,23.9,13.7,39.0,0.0,3.2,2026-05-13T21:00:00.000
Terrassa,41.55363,1.99006,Vallès Occidental,314,13.6,21.5,9.8,93.0,0.0,1.2,2026-05-13T21:00:00.000
Tivissa,41.04342,0.74029,Ribera d'Ebre,317,14.6,19.5,9.8,53.0,0.0,2.5,2026-05-13T21:00:00.000
Torredembarra,41.14675,1.41843,Tarragonès,2,18.3,22.0,12.3,45.0,0.0,1.8,2026-05-13T21:00:00.000
Torres de Segre,41.51908,0.55316,Segrià,215,15.3,21.1,10.2,52.0,0.0,,2026-05-13T21:00:00.000
Torroella de Fluvià,42.18138,3.06207,Alt Empordà,7,14.7,21.7,10.0,99.0,0.0,,2026-05-13T21:00:00.000
Torroella de Montgrí,42.02306,3.15719,Baix Empordà,4,15.8,20.9,11.9,86.0,0.0,,2026-05-13T21:00:00.000
Torroja del Priorat,41.21629,0.79745,Priorat,301,15.4,22.1,10.1,46.0,0.0,,2026-05-13T21:00:00.000
Tremp,42.16255,0.88811,Pallars Jussà,474,14.2,20.0,5.7,73.0,0.0,1.8,2026-05-13T21:00:00.000
Tàrrega,41.66696,1.16229,Urgell,429,13.6,20.7,8.8,57.0,0.0,3.7,2026-05-13T21:00:00.000
Tírvia,42.51881,1.24244,Pallars Sobirà,955,10.2,16.7,4.8,62.0,0.0,,2026-05-13T21:00:00.000
Ulldecona - els Valentins,40.62653,0.3711,Montsià,211,15.2,22.8,14.0,62.0,0.0,,2026-05-13T21:00:00.000
Ulldemolins,41.31999,0.8857,Priorat,687,11.3,17.0,6.5,57.0,0.0,3.8,2026-05-13T21:00:00.000
Ulldeter (2.413 m),42.42102,2.24593,Ripollès,2413,0.9,2.7,-1.4,91.0,0.0,2.1,2026-05-13T21:00:00.000
Vacarisses,41.59251,1.91499,Vallès Occidental,343,12.9,20.4,9.2,91.0,0.0,,2026-05-13T21:00:00.000
Vallfogona de Balaguer,41.78487,0.82939,Noguera,239,13.9,22.2,9.6,60.0,0.0,,2026-05-13T21:00:00.000
Vallirana,41.38199,1.93565,Baix Llobregat,255,13.7,21.6,11.8,80.0,0.0,1.0,2026-05-13T21:00:00.000
Vic,41.93498,2.23984,Osona,500,13.1,18.9,7.9,85.0,0.0,0.9,2026-05-13T21:00:00.000
Vielha - Elipòrt,42.69737,0.80197,Val d'Aran,1029,8.0,13.3,5.1,84.0,0.0,,2026-05-13T21:00:00.000
Vila-rodona,41.30727,1.3626,Alt Camp,286,15.7,21.8,11.1,48.0,0.0,,2026-05-13T21:00:00.000
Viladecans - les Filipines,41.28797,2.04487,Baix Llobregat,2,15.1,20.8,13.6,80.0,0.0,,2026-05-13T21:00:00.000
Viladrau,41.84008,2.41877,Osona,956,8.5,13.5,4.3,98.0,0.0,0.5,2026-05-13T21:00:00.000
Vilafranca del Penedès - la Granada,41.36619,1.72859,Alt Penedès,240,13.4,21.4,10.8,83.0,0.0,1.3,2026-05-13T21:00:00.000
Vilanova de Meià,41.99546,1.02569,Noguera,594,10.8,19.5,7.4,75.0,0.0,0.4,2026-05-13T21:00:00.000
Vilanova de Segrià,41.71448,0.62838,Segrià,223,14.4,22.1,8.8,55.0,0.0,,2026-05-13T21:00:00.000
Vilanova i la Geltrú,41.23578,1.73141,Garraf,32,14.2,22.2,12.0,83.0,0.0,1.3,2026-05-13T21:00:00.000
Vinebre,41.18498,0.59374,Ribera d'Ebre,51,17.3,23.3,12.6,43.0,0.0,1.5,2026-05-13T21:00:00.000
Vinyols i els Arcs - Cambrils,41.08015,1.06661,Baix Camp,30,18.2,23.6,12.5,42.0,0.0,,2026-05-13T21:00:00.000
el Canós,41.68938,1.20383,Segarra,430,13.0,20.1,8.6,60.0,0.0,,2026-05-13T21:00:00.000
el Masroig,41.1223,0.72182,Priorat,143,16.2,21.7,11.5,47.0,0.0,,2026-05-13T21:00:00.000
el Montmell,41.34172,1.48769,Baix Penedès,547,13.4,20.5,9.0,54.0,0.0,,2026-05-13T21:00:00.000
el Perelló,40.87289,0.71577,Baix Ebre,180,16.9,21.0,12.9,48.0,0.0,4.8,2026-05-13T21:00:00.000
el Poal,41.6728,0.87743,Pla d'Urgell,224,14.2,21.6,9.0,59.0,0.0,,2026-05-13T21:00:00.000
el Pont de Suert,42.39809,0.74364,Alta Ribagorça,824,8.1,18.6,2.3,97.0,0.0,0.9,2026-05-13T21:00:00.000
el Port del Comte (2.288 m),42.19084,1.53213,Solsonès,2288,1.7,4.1,-2.8,100.0,0.0,3.8,2026-05-13T21:00:00.000
el Prat de Llobregat,41.34054,2.08019,Baix Llobregat,7,14.9,21.6,12.5,82.0,0.0,1.0,2026-05-13T21:00:00.000
el Vendrell,41.21554,1.52117,Baix Penedès,59,16.9,21.8,13.6,50.0,0.0,1.7,2026-05-13T21:00:00.000
els Alamús,41.59514,0.73515,Segrià,231,14.1,21.4,9.1,55.0,0.0,,2026-05-13T21:00:00.000
els Alfacs,40.62725,0.6592,Montsià,1,18.5,23.4,15.1,76.0,0.0,,2026-05-13T21:00:00.000
els Hostalets de Pierola,41.53107,1.80814,Anoia,318,13.1,20.4,10.4,92.0,0.0,1.1,2026-05-13T21:00:00.000
l'Aldea,40.76946,0.61635,Baix Ebre,64,16.4,23.3,14.6,57.0,0.0,,2026-05-13T21:00:00.000
l'Ametlla de Mar,40.9091,0.76943,Baix Ebre,94,16.4,22.5,13.2,53.0,0.0,,2026-05-13T21:00:00.000
l'Espluga de Francolí,41.39242,1.09895,Conca de Barberà,446,13.5,19.5,9.2,53.0,0.0,2.4,2026-05-13T21:00:00.000
la Bisbal d'Empordà,41.97752,3.03551,Baix Empordà,30,15.5,19.7,10.5,83.0,0.0,1.0,2026-05-13T21:00:00.000
la Bisbal del Penedès,41.27151,1.46717,Baix Penedès,185,16.7,21.8,12.0,47.0,0.0,,2026-05-13T21:00:00.000
la Granadella,41.35991,0.66789,Garrigues,507,13.0,18.5,8.1,55.0,0.0,,2026-05-13T21:00:00.000
la Llacuna,41.47785,1.53527,Anoia,585,13.1,17.5,8.4,58.0,0.0,,2026-05-13T21:00:00.000
la Panadella,41.60257,1.4007,Anoia,783,10.3,16.0,5.8,65.0,0.0,3.1,2026-05-13T21:00:00.000
la Pobla de Segur,42.24385,0.96801,Pallars Jussà,508,12.6,20.5,5.7,82.0,0.0,3.9,2026-05-13T21:00:00.000
la Quar,42.08032,1.96244,Berguedà,872,10.5,14.6,6.9,69.0,0.0,0.4,2026-05-13T21:00:00.000
la Seu d'Urgell - Bellestar,42.37083,1.43279,Alt Urgell,849,12.2,18.6,5.3,56.0,0.0,0.7,2026-05-13T21:00:00.000
la Tallada d'Empordà,42.05394,3.06198,Baix Empordà,15,15.8,20.8,11.3,82.0,0.0,,2026-05-13T21:00:00.000
la Tosa d'Alp (2.478 m),42.32213,1.89716,Cerdanya,2478,0.5,0.2,-4.2,100.0,,3.7,2026-05-13T21:00:00.000
la Vall d'en Bas,42.14557,2.4545,Garrotxa,461,12.3,17.7,7.2,100.0,0.0,,2026-05-13T21:00:00.000
les Borges Blanques,41.51124,0.8561,Garrigues,283,14.3,20.7,9.4,53.0,0.0,2.5,2026-05-13T21:00:00.000
les Cases d'Alcanar,40.55788,0.52329,Montsià,25,14.1,23.8,11.7,91.0,0.0,,2026-05-13T21:00:00.000
Òdena,41.5864,1.65308,Anoia,333,14.2,20.5,9.6,59.0,0.0,1.3,2026-05-13T21:00:00.000
