nom,lat,lon,comarca,altitud,temperatura,temp_max,temp_min,humitat,precipitacio,vent,data
Albesa,41.76034,0.67022,Noguera,268,22.3,22.8,22.3,48.0,0.0,,2026-06-21T01:00:00.000
Alcarràs,41.56505,0.55029,Segrià,125,18.1,18.4,18.1,83.0,0.0,,2026-06-21T01:00:00.000
Aldover,40.85936,0.50525,Baix Ebre,53,20.9,21.3,20.9,81.0,0.0,,2026-06-21T01:00:00.000
Alfarràs,41.81952,0.57767,Segrià,269,18.6,18.6,17.8,65.0,0.0,,2026-06-21T01:00:00.000
Algerri,41.80106,0.64801,Noguera,301,25.2,25.6,24.8,33.0,0.0,,2026-06-21T01:00:00.000
Alguaire,41.7428,0.53578,Segrià,371,23.1,23.6,23.1,41.0,0.0,6.0,2026-06-21T01:00:00.000
Alinyà,42.17427,1.42769,Alt Urgell,1161,20.8,22.2,20.8,40.0,0.0,,2026-06-21T01:00:00.000
Amposta,40.70776,0.63211,Montsià,3,22.8,23.4,22.8,84.0,0.0,1.5,2026-06-21T01:00:00.000
Anglesola - Tornabous,41.68834,1.04477,Urgell,292,19.8,20.9,19.8,56.0,0.0,,2026-06-21T01:00:00.000
Anglès,41.96093,2.6311,Selva,151,16.7,17.5,16.7,80.0,0.0,0.5,2026-06-21T01:00:00.000
Artés,41.79424,1.93683,Bages,287,19.5,19.5,18.9,56.0,0.0,,2026-06-21T01:00:00.000
Ascó,41.1964,0.51101,Ribera d'Ebre,258,24.6,24.9,24.6,42.0,0.0,,2026-06-21T01:00:00.000
Badalona - Museu,41.45215,2.24757,Barcelonès,42,26.1,26.1,25.6,38.0,0.0,,2026-06-21T01:00:00.000
Baldomar,41.92173,1.02901,Noguera,366,19.7,21.6,19.7,48.0,0.0,,2026-06-21T01:00:00.000
Banyoles,42.11655,2.78971,Pla de l'Estany,178,20.8,21.6,20.8,58.0,0.0,1.3,2026-06-21T01:00:00.000
Barcelona - Observatori Fabra,41.41864,2.12379,Barcelonès,410,25.2,25.2,24.7,38.0,0.0,5.0,2026-06-21T01:00:00.000
Barcelona - Zona Universitària,41.37922,2.10537,Barcelonès,82,24.6,25.5,24.6,44.0,0.0,0.6,2026-06-21T01:00:00.000
Barcelona - el Raval,41.38386,2.16774,Barcelonès,33,27.1,27.5,27.1,37.0,0.0,1.2,2026-06-21T01:00:00.000
Batea,41.08318,0.31694,Terra Alta,403,22.5,22.5,22.1,50.0,0.0,,2026-06-21T01:00:00.000
Benissanet,41.06303,0.6355,Ribera d'Ebre,34,19.6,20.5,19.5,79.0,0.0,1.4,2026-06-21T01:00:00.000
Blancafort,41.44237,1.15998,Conca de Barberà,437,18.8,20.0,18.8,53.0,0.0,,2026-06-21T01:00:00.000
Bonaigua (2.262 m),42.64691,0.98486,Pallars Sobirà,2262,16.4,16.8,16.4,44.0,0.0,,2026-06-21T01:00:00.000
Boí (2.537 m),42.46603,0.88403,Alta Ribagorça,2537,13.2,14.1,13.2,51.0,0.0,,2026-06-21T01:00:00.000
Cabanes,42.32038,2.9564,Alt Empordà,35,18.2,18.9,18.2,74.0,0.0,,2026-06-21T01:00:00.000
Cabrils,41.51773,2.37702,Maresme,81,23.2,23.8,23.2,43.0,0.0,2.0,2026-06-21T01:00:00.000
Cadí Nord (2.145 m) - Prat d'Aguiló,42.29265,1.71498,Cerdanya,2145,16.0,16.7,16.0,46.0,0.0,1.2,2026-06-21T01:00:00.000
Caldes de Montbui,41.61264,2.1683,Vallès Oriental,177,21.6,22.6,21.6,51.0,0.0,2.1,2026-06-21T01:00:00.000
Camarasa,41.9178,0.88175,Noguera,669,22.7,23.5,22.7,34.0,0.0,,2026-06-21T01:00:00.000
Canaletes,41.48518,1.69341,Alt Penedès,325,21.0,21.9,21.0,53.0,0.0,,2026-06-21T01:00:00.000
Cantonigròs,42.04264,2.40474,Osona,927,20.4,20.8,20.4,46.0,0.0,0.7,2026-06-21T01:00:00.000
Canyelles,41.288,1.72201,Garraf,150,21.7,23.4,21.7,52.0,0.0,0.1,2026-06-21T01:00:00.000
Cardona,41.92044,1.69586,Bages,402,16.5,17.5,16.5,70.0,0.0,,2026-06-21T01:00:00.000
Cassà de la Selva,41.87448,2.92695,Gironès,178,16.7,17.2,16.7,67.0,0.0,,2026-06-21T01:00:00.000
Castell d'Aro,41.80855,3.03241,Baix Empordà,14,19.6,20.1,19.6,61.0,0.0,2.2,2026-06-21T01:00:00.000
Castellar de n'Hug - el Clot del Moro,42.25943,1.9761,Berguedà,940,15.0,15.7,15.0,71.0,0.0,,2026-06-21T01:00:00.000
Castellbisbal,41.47892,1.97546,Vallès Occidental,146,22.6,23.0,22.3,49.0,0.0,1.1,2026-06-21T01:00:00.000
Castellnou de Bages,41.83094,1.84699,Bages,507,20.3,21.8,20.3,52.0,0.0,1.2,2026-06-21T01:00:00.000
Castellnou de Seana,41.65662,0.95172,Pla d'Urgell,264,20.3,20.9,20.3,56.0,0.0,2.6,2026-06-21T01:00:00.000
Castelló d'Empúries,42.24726,3.09022,Alt Empordà,5,17.0,17.6,17.0,100.0,0.0,,2026-06-21T01:00:00.000
Certascan (2.398 m),42.7003,1.272,Pallars Sobirà,2398,15.4,15.4,15.4,46.0,0.0,,2026-06-21T01:00:00.000
Cervera,41.67556,1.2961,Segarra,556,21.5,23.5,21.5,45.0,0.0,1.0,2026-06-21T01:00:00.000
Constantí,41.1713,1.16774,Tarragonès,113,23.1,23.8,23.1,44.0,0.0,2.5,2026-06-21T01:00:00.000
Cunit,41.20187,1.63346,Baix Penedès,18,24.5,24.7,24.3,43.0,0.0,0.4,2026-06-21T01:00:00.000
Das - Aeròdrom,42.38603,1.86639,Cerdanya,1096,14.0,14.5,13.9,79.0,0.0,0.7,2026-06-21T01:00:00.000
Dosrius - PN Montnegre Corredor,41.61991,2.44532,Maresme,462,23.0,23.0,22.6,42.0,0.0,,2026-06-21T00:30:00.000
Espolla,42.38443,3.00739,Alt Empordà,84,18.5,19.1,18.3,67.0,0.0,,2026-06-21T01:00:00.000
Espot (2.519 m),42.5341,1.05474,Pallars Sobirà,2519,14.5,14.6,14.5,47.0,0.0,1.9,2026-06-21T01:00:00.000
Falset,41.15374,0.81952,Priorat,358,24.6,25.0,24.6,35.0,0.0,1.4,2026-06-21T01:00:00.000
Fogars de la Selva,41.73892,2.69438,Selva,42,18.1,18.1,17.2,72.0,0.0,,2026-06-21T01:00:00.000
Font-rubí,41.4329,1.62386,Alt Penedès,414,23.7,23.7,22.8,40.0,0.0,2.0,2026-06-21T01:00:00.000
Fornells de la Selva,41.91461,2.82071,Gironès,97,16.3,17.4,16.3,79.0,0.0,,2026-06-21T01:00:00.000
Gandesa,41.06564,0.43006,Terra Alta,351,21.2,21.7,21.2,63.0,0.0,,2026-06-21T01:00:00.000
Gimenells,41.65825,0.3932,Segrià,260,22.3,23.0,21.3,48.0,0.0,,2026-06-21T01:00:00.000
Girona,41.98215,2.80552,Gironès,72,17.0,18.5,17.0,80.0,0.0,0.1,2026-06-21T01:00:00.000
Gisclareny,42.26478,1.76216,Berguedà,1388,18.9,18.9,18.6,48.0,0.0,,2026-06-21T01:00:00.000
Golmés,41.63641,0.92445,Pla d'Urgell,260,20.6,22.0,20.6,53.0,0.0,,2026-06-21T01:00:00.000
Granollers,41.60929,2.29847,Vallès Oriental,211,23.1,23.6,23.1,49.0,0.0,,2026-06-21T01:00:00.000
Guardiola de Berguedà,42.23414,1.87485,Berguedà,787,14.2,14.9,14.2,72.0,0.0,0.1,2026-06-21T01:00:00.000
Guixers - Valls,42.13595,1.67297,Solsonès,845,13.5,14.4,13.5,82.0,0.0,,2026-06-21T01:00:00.000
Horta de Sant Joan,40.95134,0.30563,Terra Alta,517,23.9,25.3,23.9,41.0,0.0,3.0,2026-06-21T01:00:00.000
Illa de Buda,40.70717,0.83447,Montsià,1,24.0,24.0,23.6,82.0,0.0,1.3,2026-06-21T01:00:00.000
Lac Redon (2.245 m),42.63836,0.7789,Val d'Aran,2245,14.3,15.4,14.3,53.0,0.0,1.5,2026-06-21T01:00:00.000
Lladurs,42.08745,1.42792,Solsonès,786,19.5,20.3,19.5,48.0,0.0,,2026-06-21T01:00:00.000
Lleida - la Femosa,41.58449,0.64217,Segrià,170,20.8,22.1,20.8,54.0,0.0,1.3,2026-06-21T01:00:00.000
Maials,41.35741,0.4809,Segrià,350,18.4,19.2,18.4,72.0,0.0,,2026-06-21T01:00:00.000
Malgrat de Mar,41.64706,2.75659,Maresme,3,20.4,20.4,20.2,66.0,0.0,1.9,2026-06-21T01:00:00.000
Malniu (2.229 m),42.46605,1.7785,Cerdanya,2229,15.5,15.9,15.5,48.0,0.0,,2026-06-21T01:00:00.000
Margalef,41.28522,0.75387,Priorat,404,19.6,21.3,19.6,49.0,0.0,2.2,2026-06-21T01:00:00.000
Mas de Barberans,40.71822,0.39986,Montsià,241,22.1,22.1,22.0,58.0,0.0,1.5,2026-06-21T01:00:00.000
Massoteres,41.79405,1.30575,Segarra,512,20.0,20.5,20.0,51.0,0.0,2.0,2026-06-21T01:00:00.000
Mataró,41.54518,2.43322,Maresme,88,25.9,25.9,25.2,33.0,0.0,1.4,2026-06-21T01:00:00.000
Miami Platja,41.02066,0.9345,Baix Camp,43,20.9,21.5,20.9,60.0,0.0,2.1,2026-06-21T01:00:00.000
Mollerussa,41.61817,0.87182,Pla d'Urgell,246,18.9,21.1,18.9,63.0,0.0,,2026-06-21T01:00:00.000
Molló - Fabert,42.37718,2.41452,Ripollès,1405,19.7,19.8,19.4,45.0,0.0,0.5,2026-06-21T01:00:00.000
Montesquiu,42.11479,2.21481,Osona,683,15.9,16.7,15.9,64.0,0.0,,2026-06-21T01:00:00.000
Montsec d'Ares (1.571 m),42.0513,0.72952,Pallars Jussà,1571,19.7,20.7,19.7,34.0,0.0,2.4,2026-06-21T01:00:00.000
Montserrat - Sant Dimes,41.59539,1.8375,Bages,918,23.2,23.3,23.2,36.0,0.0,,2026-06-21T01:00:00.000
Muntanyola,41.8781,2.17875,Osona,816,22.0,23.2,22.0,39.0,0.0,0.6,2026-06-21T01:00:00.000
Navata,42.22792,2.86242,Alt Empordà,152,19.1,20.0,19.1,65.0,0.0,1.0,2026-06-21T01:00:00.000
Nulles,41.25095,1.29863,Alt Camp,239,19.9,21.0,19.9,51.0,0.0,,2026-06-21T01:00:00.000
Núria (1.971 m),42.39848,2.15517,Ripollès,1971,13.9,13.9,13.8,60.0,0.0,1.1,2026-06-21T01:00:00.000
Oliana,42.07683,1.31489,Alt Urgell,491,19.4,19.4,18.9,51.0,0.0,,2026-06-21T01:00:00.000
Oliola,41.87694,1.1541,Noguera,444,19.4,19.4,17.9,59.0,0.0,,2026-06-21T01:00:00.000
Olot,42.18811,2.47094,Garrotxa,435,17.1,18.2,17.1,73.0,0.0,0.8,2026-06-21T01:00:00.000
Organyà,42.21622,1.33133,Alt Urgell,568,19.8,20.8,19.8,56.0,0.0,1.0,2026-06-21T01:00:00.000
Orís,42.07397,2.20865,Osona,627,16.6,16.8,16.5,66.0,0.0,1.0,2026-06-21T01:00:00.000
Os de Balaguer - el Monestir d'Avellanes,41.87912,0.76103,Noguera,577,20.4,21.7,20.4,46.0,0.0,,2026-06-21T01:00:00.000
PN del Garraf - el Rascler,41.28833,1.90773,Baix Llobregat,573,24.3,24.3,24.0,41.0,0.0,,2026-06-21T01:00:00.000
PN dels Ports,40.79705,0.31822,Baix Ebre,1056,22.8,22.9,22.7,34.0,0.0,2.7,2026-06-21T01:00:00.000
Palafrugell,41.90694,3.16073,Baix Empordà,35,17.9,18.8,17.9,73.0,0.0,0.7,2026-06-21T01:00:00.000
Pantà de Darnius - Boadella,42.34214,2.83425,Alt Empordà,159,20.1,20.7,20.1,73.0,0.0,2.3,2026-06-21T01:00:00.000
Pantà de Riba-roja,41.2441,0.4327,Ribera d'Ebre,77,21.6,23.7,21.6,66.0,0.0,,2026-06-21T01:00:00.000
Pantà de Siurana,41.2508,0.91063,Priorat,503,22.4,23.6,22.4,43.0,0.0,1.2,2026-06-21T01:00:00.000
Parets del Vallès,41.5673,2.22615,Vallès Oriental,118,23.1,23.9,23.1,50.0,0.0,1.5,2026-06-21T01:00:00.000
Perafita,42.03947,2.11993,Lluçanès,777,18.2,18.8,18.2,57.0,0.0,0.9,2026-06-21T01:00:00.000
Pinós,41.80483,1.53853,Solsonès,660,21.3,21.3,19.4,47.0,0.0,,2026-06-21T01:00:00.000
Port de Barcelona - ZAL Prat,41.31928,2.1372,Baix Llobregat,5,25.4,26.0,25.4,51.0,0.0,1.3,2026-06-21T01:00:00.000
Portbou - coll dels Belitres,42.43514,3.16619,Alt Empordà,198,26.2,26.3,26.2,36.0,0.0,7.7,2026-06-21T01:00:00.000
Prades,41.31481,0.98161,Baix Camp,927,19.0,19.0,19.0,45.0,0.0,,2026-06-21T00:00:00.000
Puig Sesolles (1.666 m),41.77362,2.43774,Vallès Oriental,1666,17.8,19.7,17.8,36.0,0.0,7.1,2026-06-21T01:00:00.000
Puigcerdà,42.44013,1.93482,Cerdanya,1214,16.6,17.1,16.6,62.0,0.0,0.4,2026-06-21T01:00:00.000
Pujalt,41.71735,1.42404,Anoia,748,22.3,22.5,22.3,41.0,0.0,2.8,2026-06-21T01:00:00.000
Raimat,41.68325,0.44871,Segrià,286,23.3,23.7,23.3,44.0,0.0,2.1,2026-06-21T01:00:00.000
Rellinars,41.63285,1.91718,Vallès Occidental,429,20.9,21.9,20.9,51.0,0.0,,2026-06-21T01:00:00.000
Riudecanyes,41.12267,0.96958,Baix Camp,171,22.4,22.6,22.3,47.0,0.0,2.6,2026-06-21T01:00:00.000
Roses,42.27068,3.18147,Alt Empordà,23,21.5,24.1,21.5,55.0,0.0,0.5,2026-06-21T01:00:00.000
Sabadell - Parc Agrari,41.56568,2.06955,Vallès Occidental,259,21.0,21.9,21.0,58.0,0.0,1.3,2026-06-21T01:00:00.000
Salòria (2.451 m),42.51939,1.36597,Pallars Sobirà,2451,14.2,14.5,14.2,51.0,0.0,1.6,2026-06-21T01:00:00.000
Sant Cugat del Vallès - CAR,41.48318,2.07947,Vallès Occidental,157,21.9,23.3,21.9,55.0,0.0,0.4,2026-06-21T01:00:00.000
Sant Llorenç Savall,41.68136,2.02655,Vallès Occidental,530,16.8,17.6,16.7,64.0,0.0,0.7,2026-06-21T01:00:00.000
Sant Martí Sarroca,41.37492,1.6303,Alt Penedès,257,21.8,22.8,21.8,48.0,0.0,,2026-06-21T01:00:00.000
Sant Martí de Riucorb,41.57236,1.0882,Urgell,414,21.6,23.0,21.6,39.0,0.0,,2026-06-21T01:00:00.000
Sant Pau de Segúries,42.25835,2.36426,Ripollès,853,15.8,16.8,15.8,72.0,0.0,1.7,2026-06-21T01:00:00.000
Sant Pere Pescador,42.17716,3.0968,Alt Empordà,3,16.7,16.8,16.7,95.0,0.0,1.1,2026-06-21T01:00:00.000
Sant Pere de Ribes - PN del Garraf,41.27861,1.80478,Garraf,164,24.1,24.1,23.9,43.0,0.0,,2026-06-21T01:00:00.000
Sant Romà d'Abella,42.13922,1.03894,Pallars Jussà,689,22.3,23.5,22.3,40.0,0.0,1.5,2026-06-21T01:00:00.000
Sant Sadurní d'Anoia,41.4353,1.79322,Alt Penedès,155,20.7,22.6,20.7,58.0,0.0,,2026-06-21T01:00:00.000
Sant Salvador de Guardiola,41.67403,1.76797,Bages,347,18.0,19.2,18.0,64.0,0.0,0.6,2026-06-21T01:00:00.000
Santa Coloma de Farners,41.86491,2.66444,Selva,165,19.0,20.4,19.0,58.0,0.0,1.1,2026-06-21T01:00:00.000
Santa Coloma de Queralt,41.52879,1.3683,Conca de Barberà,709,19.3,20.1,19.3,50.0,0.0,,2026-06-21T01:00:00.000
Santuari de Queralt,42.10736,1.8267,Berguedà,1169,20.7,21.8,20.7,41.0,0.0,2.0,2026-06-21T01:00:00.000
Seròs,41.46373,0.42766,Segrià,89,18.0,19.0,18.0,85.0,0.0,,2026-06-21T01:00:00.000
Solsona,41.98762,1.51159,Solsonès,692,17.5,18.1,17.5,59.0,0.0,0.4,2026-06-21T01:00:00.000
Sort,42.40537,1.12997,Pallars Sobirà,677,17.3,17.7,17.3,74.0,0.0,,2026-06-21T01:00:00.000
Tagamanent - PN del Montseny,41.7476,2.3029,Vallès Oriental,1030,21.8,22.1,21.8,40.0,0.0,,2026-06-21T01:00:00.000
Tarragona - Complex Educatiu,41.10392,1.201,Tarragonès,6,24.3,25.1,24.3,44.0,0.0,1.3,2026-06-21T01:00:00.000
Terrassa,41.55363,1.99006,Vallès Occidental,314,22.6,23.6,22.6,47.0,0.0,0.3,2026-06-21T01:00:00.000
Tivissa,41.04342,0.74029,Ribera d'Ebre,317,23.3,24.1,23.2,42.0,0.0,2.9,2026-06-21T01:00:00.000
Torredembarra,41.14675,1.41843,Tarragonès,2,20.8,22.3,20.8,62.0,0.0,0.6,2026-06-21T01:00:00.000
Torres de Segre,41.51908,0.55316,Segrià,215,21.3,23.8,21.3,51.0,0.0,,2026-06-21T01:00:00.000
Torroella de Fluvià,42.18138,3.06207,Alt Empordà,7,15.9,17.2,15.9,97.0,0.0,,2026-06-21T01:00:00.000
Torroella de Montgrí,42.02306,3.15719,Baix Empordà,4,18.5,18.7,18.5,86.0,0.0,,2026-06-21T01:00:00.000
Torroja del Priorat,41.21629,0.79745,Priorat,301,23.5,24.6,23.5,36.0,0.0,,2026-06-21T01:00:00.000
Tremp,42.16255,0.88811,Pallars Jussà,474,21.1,21.1,20.6,49.0,0.0,1.3,2026-06-21T01:00:00.000
Tàrrega,41.66696,1.16229,Urgell,429,21.9,22.6,21.9,44.0,0.0,3.3,2026-06-21T01:00:00.000
Tírvia,42.51881,1.24244,Pallars Sobirà,955,18.9,19.2,18.9,55.0,0.0,,2026-06-21T01:00:00.000
Ulldecona - els Valentins,40.62653,0.3711,Montsià,211,19.7,20.2,19.7,69.0,0.0,,2026-06-21T01:00:00.000
Ulldemolins,41.31999,0.8857,Priorat,687,23.1,23.2,22.5,31.0,0.0,1.0,2026-06-21T01:00:00.000
Ulldeter (2.413 m),42.42102,2.24593,Ripollès,2413,15.6,17.2,15.6,42.0,0.0,3.8,2026-06-21T01:00:00.000
Vacarisses,41.59251,1.91499,Vallès Occidental,343,18.8,20.6,18.8,63.0,0.0,,2026-06-21T01:00:00.000
Vallfogona de Balaguer,41.78487,0.82939,Noguera,239,23.6,23.9,23.6,42.0,0.0,,2026-06-21T01:00:00.000
Vallirana,41.38199,1.93565,Baix Llobregat,255,22.9,23.7,22.9,49.0,0.0,1.2,2026-06-21T01:00:00.000
Vic,41.93498,2.23984,Osona,500,18.1,18.4,18.1,62.0,0.0,0.4,2026-06-21T01:00:00.000
Vielha - Elipòrt,42.69737,0.80197,Val d'Aran,1029,20.6,21.3,20.6,48.0,0.0,,2026-06-21T01:00:00.000
Vila-rodona,41.30727,1.3626,Alt Camp,286,21.6,22.2,21.6,45.0,0.0,,2026-06-21T01:00:00.000
Viladecans - les Filipines,41.28797,2.04487,Baix Llobregat,2,24.1,24.1,22.9,50.0,0.0,,2026-06-21T01:00:00.000
Viladrau,41.84008,2.41877,Osona,956,16.7,17.9,16.7,52.0,0.0,0.4,2026-06-21T01:00:00.000
Vilafranca del Penedès - la Granada,41.36619,1.72859,Alt Penedès,240,20.8,22.2,20.8,54.0,0.0,1.6,2026-06-21T01:00:00.000
Vilanova de Meià,41.99546,1.02569,Noguera,594,21.4,21.8,21.4,44.0,0.0,0.8,2026-06-21T01:00:00.000
Vilanova de Segrià,41.71448,0.62838,Segrià,223,21.1,21.1,19.7,52.0,0.0,,2026-06-21T01:00:00.000
Vilanova i la Geltrú,41.23578,1.73141,Garraf,32,24.1,25.1,24.1,46.0,0.0,1.8,2026-06-21T01:00:00.000
Vinebre,41.18498,0.59374,Ribera d'Ebre,51,21.0,22.0,21.0,66.0,0.0,0.8,2026-06-21T01:00:00.000
Vinyols i els Arcs - Cambrils,41.08015,1.06661,Baix Camp,30,21.4,21.6,21.1,53.0,0.0,,2026-06-21T01:00:00.000
el Canós,41.68938,1.20383,Segarra,430,20.3,21.4,20.3,49.0,0.0,,2026-06-21T01:00:00.000
el Masroig,41.1223,0.72182,Priorat,143,19.6,19.6,19.6,70.0,0.0,,2026-06-21T01:00:00.000
el Montmell,41.34172,1.48769,Baix Penedès,547,21.0,21.0,20.8,47.0,0.0,,2026-06-21T01:00:00.000
el Perelló,40.87289,0.71577,Baix Ebre,180,21.6,22.4,21.6,65.0,0.0,0.9,2026-06-21T01:00:00.000
el Poal,41.6728,0.87743,Pla d'Urgell,224,18.9,20.7,18.9,66.0,0.0,,2026-06-21T01:00:00.000
el Pont de Suert,42.39809,0.74364,Alta Ribagorça,824,15.2,16.1,15.2,75.0,0.0,0.5,2026-06-21T01:00:00.000
el Port del Comte (2.288 m),42.19084,1.53213,Solsonès,2288,15.6,15.6,15.3,47.0,0.0,4.2,2026-06-21T01:00:00.000
el Prat de Llobregat,41.34054,2.08019,Baix Llobregat,7,22.2,24.1,22.2,56.0,0.0,1.4,2026-06-21T01:00:00.000
el Vendrell,41.21554,1.52117,Baix Penedès,59,24.0,24.0,22.6,43.0,0.0,2.4,2026-06-21T01:00:00.000
els Alamús,41.59514,0.73515,Segrià,231,19.7,21.4,19.7,59.0,0.0,,2026-06-21T01:00:00.000
els Alfacs,40.62725,0.6592,Montsià,1,23.5,24.1,23.5,80.0,0.0,,2026-06-21T01:00:00.000
els Hostalets de Pierola,41.53107,1.80814,Anoia,318,22.8,23.8,22.8,45.0,0.0,1.2,2026-06-21T01:00:00.000
l'Aldea,40.76946,0.61635,Baix Ebre,64,22.4,23.1,22.4,63.0,0.0,,2026-06-21T01:00:00.000
l'Ametlla de Mar,40.9091,0.76943,Baix Ebre,94,20.9,20.9,20.3,66.0,0.0,,2026-06-21T01:00:00.000
l'Espluga de Francolí,41.39242,1.09895,Conca de Barberà,446,22.4,23.2,22.4,41.0,0.0,2.7,2026-06-21T01:00:00.000
la Bisbal d'Empordà,41.97752,3.03551,Baix Empordà,30,19.0,19.2,19.0,69.0,0.0,0.7,2026-06-21T01:00:00.000
la Bisbal del Penedès,41.27151,1.46717,Baix Penedès,185,19.1,20.2,19.1,56.0,0.0,,2026-06-21T01:00:00.000
la Granadella,41.35991,0.66789,Garrigues,507,21.1,21.1,19.7,55.0,0.0,,2026-06-21T01:00:00.000
la Llacuna,41.47785,1.53527,Anoia,585,16.6,18.2,16.6,61.0,0.0,,2026-06-21T01:00:00.000
la Panadella,41.60257,1.4007,Anoia,783,20.7,20.9,20.7,47.0,0.0,3.6,2026-06-21T01:00:00.000
la Pobla de Segur,42.24385,0.96801,Pallars Jussà,508,20.7,21.5,20.7,52.0,0.0,2.7,2026-06-21T01:00:00.000
la Quar,42.08032,1.96244,Berguedà,872,19.6,19.6,19.5,50.0,0.0,1.7,2026-06-21T01:00:00.000
la Seu d'Urgell - Bellestar,42.37083,1.43279,Alt Urgell,849,19.7,20.2,19.7,49.0,0.0,0.3,2026-06-21T01:00:00.000
la Tallada d'Empordà,42.05394,3.06198,Baix Empordà,15,18.6,19.0,18.6,76.0,0.0,,2026-06-21T01:00:00.000
la Tosa d'Alp (2.478 m),42.32213,1.89716,Cerdanya,2478,14.5,14.6,14.5,50.0,,5.4,2026-06-21T01:00:00.000
la Vall d'en Bas,42.14557,2.4545,Garrotxa,461,16.8,17.9,16.8,80.0,0.0,,2026-06-21T01:00:00.000
les Borges Blanques,41.51124,0.8561,Garrigues,283,19.1,21.4,19.1,58.0,0.0,1.9,2026-06-21T01:00:00.000
les Cases d'Alcanar,40.55788,0.52329,Montsià,25,21.0,23.1,21.0,81.0,0.0,,2026-06-21T01:00:00.000
Òdena,41.5864,1.65308,Anoia,333,18.0,19.9,18.0,64.0,0.0,0.4,2026-06-21T01:00:00.000
