nom,lat,lon,comarca,altitud,temperatura,humitat,precipitacio,vent
Albesa,41.76034,0.67022,Noguera,268,23.9,44.0,0.0,
Alcarràs,41.56505,0.55029,Segrià,125,24.2,43.0,0.0,
Aldover,40.85936,0.50525,Baix Ebre,53,24.9,45.0,0.0,
Alfarràs,41.81952,0.57767,Segrià,269,22.9,45.0,0.0,
Algerri,41.80106,0.64801,Noguera,301,21.9,43.0,0.0,
Alguaire,41.7428,0.53578,Segrià,371,22.3,45.0,0.0,3.8
Alinyà,42.17427,1.42769,Alt Urgell,1161,14.9,56.0,0.0,
Amposta,40.70776,0.63211,Montsià,3,23.1,53.0,0.0,5.1
Anglesola - Tornabous,41.68834,1.04477,Urgell,292,21.7,51.0,0.0,
Anglès,41.96093,2.6311,Selva,151,21.1,61.0,0.0,4.2
Artés,41.79424,1.93683,Bages,287,23.1,44.0,0.0,
Ascó,41.1964,0.51101,Ribera d'Ebre,258,23.1,38.0,0.0,
Badalona - Museu,41.45215,2.24757,Barcelonès,42,18.6,75.0,0.0,
Baldomar,41.92173,1.02901,Noguera,366,22.2,45.0,0.0,
Banyoles,42.11655,2.78971,Pla de l'Estany,178,21.3,58.0,0.0,3.3
Barcelona - Observatori Fabra,41.41864,2.12379,Barcelonès,410,20.8,69.0,0.0,1.5
Barcelona - Zona Universitària,41.37922,2.10537,Barcelonès,82,21.0,68.0,0.0,3.8
Barcelona - el Raval,41.38386,2.16774,Barcelonès,33,20.6,73.0,0.0,4.0
Benissanet,41.06303,0.6355,Ribera d'Ebre,34,23.8,42.0,0.0,1.9
Blancafort,41.44237,1.15998,Conca de Barberà,437,20.6,48.0,0.0,
Bonabé (1.691 m),42.75094,1.07527,Pallars Sobirà,1691,8.2,79.0,0.0,
Bonaigua (2.262 m),42.64691,0.98486,Pallars Sobirà,2262,5.9,69.0,0.0,
Boí (2.537 m),42.46603,0.88403,Alta Ribagorça,2537,1.7,88.0,0.0,
Cabanes,42.32038,2.9564,Alt Empordà,35,22.0,54.0,0.0,
Cabrils,41.51773,2.37702,Maresme,81,18.4,77.0,0.0,3.7
Cadí Nord (2.145 m) - Prat d'Aguiló,42.29265,1.71498,Cerdanya,2145,6.9,67.0,0.0,2.7
Caldes de Montbui,41.61264,2.1683,Vallès Oriental,177,20.2,66.0,0.0,4.0
Camarasa,41.9178,0.88175,Noguera,669,20.8,42.0,0.0,
Canaletes,41.48518,1.69341,Alt Penedès,325,23.5,45.0,0.0,
Cantonigròs,42.04264,2.40474,Osona,927,17.6,53.0,0.0,3.6
Canyelles,41.288,1.72201,Garraf,150,22.8,48.0,0.0,3.3
Cardona,41.92044,1.69586,Bages,402,22.5,43.0,0.0,
Cassà de la Selva,41.87448,2.92695,Gironès,178,19.4,64.0,0.0,
Castell d'Aro,41.80855,3.03241,Baix Empordà,14,20.4,62.0,0.0,2.7
Castellar de n'Hug - el Clot del Moro,42.25943,1.9761,Berguedà,940,18.3,46.0,0.0,
Castellbisbal,41.47892,1.97546,Vallès Occidental,146,23.6,47.0,0.0,4.4
Castellnou de Bages,41.83094,1.84699,Bages,507,22.5,37.0,0.0,5.5
Castellnou de Seana,41.65662,0.95172,Pla d'Urgell,264,23.3,46.0,0.0,2.9
Castelló d'Empúries,42.24726,3.09022,Alt Empordà,5,21.9,50.0,0.0,
Certascan (2.398 m),42.7003,1.272,Pallars Sobirà,2398,4.9,64.0,0.0,
Cervera,41.67556,1.2961,Segarra,556,20.9,50.0,0.0,3.2
Constantí,41.1713,1.16774,Tarragonès,113,23.6,45.0,0.0,3.6
Cunit,41.20187,1.63346,Baix Penedès,18,21.5,69.0,0.0,3.0
Das - Aeròdrom,42.38603,1.86639,Cerdanya,1096,17.4,53.0,0.0,6.2
Dosrius - PN Montnegre Corredor,41.61991,2.44532,Maresme,462,15.4,83.0,0.0,
Espolla,42.38443,3.00739,Alt Empordà,84,21.6,57.0,0.0,
Espot (2.519 m),42.5341,1.05474,Pallars Sobirà,2519,3.0,81.0,0.0,2.1
Falset,41.15374,0.81952,Priorat,358,23.7,35.0,0.0,2.4
Fogars de la Selva,41.73892,2.69438,Selva,42,21.2,64.0,0.0,
Font-rubí,41.4329,1.62386,Alt Penedès,414,21.9,45.0,0.0,5.4
Fornells de la Selva,41.91461,2.82071,Gironès,97,21.8,61.0,0.0,
Gandesa,41.06564,0.43006,Terra Alta,351,21.8,40.0,0.0,
Gimenells,41.65825,0.3932,Segrià,260,22.8,46.0,0.0,
Girona,41.98215,2.80552,Gironès,72,21.9,57.0,0.0,3.0
Gisclareny,42.26478,1.76216,Berguedà,1388,13.7,58.0,0.0,
Golmés,41.63641,0.92445,Pla d'Urgell,260,22.0,46.0,0.0,
Granollers,41.60929,2.29847,Vallès Oriental,211,19.2,71.0,0.0,
Guardiola de Berguedà,42.23414,1.87485,Berguedà,787,19.4,41.0,0.0,2.3
Guixers - Valls,42.13595,1.67297,Solsonès,845,18.4,43.0,0.0,
Horta de Sant Joan,40.95134,0.30563,Terra Alta,517,19.5,51.0,0.1,2.4
Illa de Buda,40.70717,0.83447,Montsià,1,23.0,55.0,0.0,2.2
Lac Redon (2.245 m),42.63836,0.7789,Val d'Aran,2245,3.5,89.0,0.1,6.4
Lladurs,42.08745,1.42792,Solsonès,786,19.4,50.0,0.0,
Lleida - la Femosa,41.58449,0.64217,Segrià,170,22.9,49.0,0.0,2.2
Maials,41.35741,0.4809,Segrià,350,22.0,46.0,0.0,
Malgrat de Mar,41.64706,2.75659,Maresme,3,20.8,67.0,0.0,2.9
Malniu (2.229 m),42.46605,1.7785,Cerdanya,2229,8.1,52.0,0.0,
Margalef,41.28522,0.75387,Priorat,404,22.1,36.0,0.0,4.0
Mas de Barberans,40.71822,0.39986,Montsià,241,23.5,42.0,0.0,2.3
Massoteres,41.79405,1.30575,Segarra,512,20.8,48.0,0.0,4.7
Mataró,41.54518,2.43322,Maresme,88,19.3,74.0,0.0,3.3
Miami Platja,41.02066,0.9345,Baix Camp,43,23.5,46.0,0.0,4.3
Mollerussa,41.61817,0.87182,Pla d'Urgell,246,22.5,45.0,0.0,
Molló - Fabert,42.37718,2.41452,Ripollès,1405,10.7,84.0,0.0,1.9
Montesquiu,42.11479,2.21481,Osona,683,20.6,47.0,0.0,
Montsec d'Ares (1.571 m),42.0513,0.72952,Pallars Jussà,1571,10.0,73.0,0.0,5.8
Montserrat - Sant Dimes,41.59539,1.8375,Bages,918,16.4,62.0,0.1,
Muntanyola,41.8781,2.17875,Osona,816,18.3,49.0,0.0,5.0
Navata,42.22792,2.86242,Alt Empordà,152,21.0,59.0,0.0,3.8
Nulles,41.25095,1.29863,Alt Camp,239,24.0,44.0,0.0,
Núria (1.971 m),42.39848,2.15517,Ripollès,1971,6.8,87.0,0.0,1.3
Oliana,42.07683,1.31489,Alt Urgell,491,21.6,49.0,0.0,
Oliola,41.87694,1.1541,Noguera,444,21.5,48.0,0.0,
Olot,42.18811,2.47094,Garrotxa,435,20.6,62.0,0.0,2.5
Organyà,42.21622,1.33133,Alt Urgell,568,20.2,51.0,0.0,4.2
Orís,42.07397,2.20865,Osona,627,20.6,45.0,0.0,2.7
Os de Balaguer - el Monestir d'Avellanes,41.87912,0.76103,Noguera,577,21.9,43.0,0.0,
PN del Garraf - el Rascler,41.28833,1.90773,Baix Llobregat,573,20.6,50.0,0.0,
PN dels Ports,40.79705,0.31822,Baix Ebre,1056,13.2,85.0,0.7,1.2
Palafrugell,41.90694,3.16073,Baix Empordà,35,18.4,68.0,0.0,2.7
Pantà de Darnius - Boadella,42.34214,2.83425,Alt Empordà,159,20.6,55.0,0.0,1.3
Pantà de Riba-roja,41.2441,0.4327,Ribera d'Ebre,77,24.2,36.0,0.0,
Pantà de Siurana,41.2508,0.91063,Priorat,503,25.8,30.0,0.0,4.0
Parets del Vallès,41.5673,2.22615,Vallès Oriental,118,20.2,69.0,0.0,5.4
Perafita,42.03947,2.11993,Lluçanès,777,18.2,52.0,0.0,3.7
Pinós,41.80483,1.53853,Solsonès,660,19.7,50.0,0.0,
Port de Barcelona - ZAL Prat,41.31928,2.1372,Baix Llobregat,5,20.8,77.0,0.0,4.2
Portbou - coll dels Belitres,42.43514,3.16619,Alt Empordà,198,20.2,59.0,0.0,5.7
Prades,41.31481,0.98161,Baix Camp,927,17.3,44.0,0.0,
Puig Sesolles (1.666 m),41.77362,2.43774,Vallès Oriental,1666,8.7,99.0,0.0,5.9
Puigcerdà,42.44013,1.93482,Cerdanya,1214,16.8,44.0,0.0,3.8
Pujalt,41.71735,1.42404,Anoia,748,19.1,52.0,0.0,2.7
Raimat,41.68325,0.44871,Segrià,286,22.0,50.0,0.0,2.3
Rellinars,41.63285,1.91718,Vallès Occidental,429,20.9,53.0,0.0,
Riudecanyes,41.12267,0.96958,Baix Camp,171,24.5,41.0,0.0,4.0
Roses,42.27068,3.18147,Alt Empordà,23,21.5,51.0,0.0,4.5
Sabadell - Parc Agrari,41.56568,2.06955,Vallès Occidental,259,20.1,76.0,0.0,5.1
Salòria (2.451 m),42.51939,1.36597,Pallars Sobirà,2451,4.6,75.0,0.0,2.8
Sant Cugat del Vallès - CAR,41.48318,2.07947,Vallès Occidental,157,21.6,67.0,0.0,2.8
Sant Llorenç Savall,41.68136,2.02655,Vallès Occidental,530,18.2,69.0,0.0,1.8
Sant Martí Sarroca,41.37492,1.6303,Alt Penedès,257,23.6,43.0,0.0,
Sant Martí de Riucorb,41.57236,1.0882,Urgell,414,21.0,52.0,0.0,
Sant Pau de Segúries,42.25835,2.36426,Ripollès,853,16.4,68.0,0.0,2.1
Sant Pere Pescador,42.17716,3.0968,Alt Empordà,3,20.9,60.0,0.0,3.1
Sant Pere de Ribes - PN del Garraf,41.27861,1.80478,Garraf,164,23.8,39.0,0.0,
Sant Romà d'Abella,42.13922,1.03894,Pallars Jussà,689,20.5,48.0,0.0,1.3
Sant Sadurní d'Anoia,41.4353,1.79322,Alt Penedès,155,24.9,38.0,0.0,
Sant Salvador de Guardiola,41.67403,1.76797,Bages,347,23.9,38.0,0.0,1.9
Santa Coloma de Farners,41.86491,2.66444,Selva,165,22.3,57.0,0.0,3.9
Santa Coloma de Queralt,41.52879,1.3683,Conca de Barberà,709,19.7,51.0,0.0,
Santuari de Queralt,42.10736,1.8267,Berguedà,1169,17.4,47.0,0.0,4.2
Sasseuva (2.226 m),42.77011,0.73198,Val d'Aran,2226,2.9,94.0,0.0,
Seròs,41.46373,0.42766,Segrià,89,24.1,43.0,0.0,
Solsona,41.98762,1.51159,Solsonès,692,20.7,42.0,0.0,5.9
Sort,42.40537,1.12997,Pallars Sobirà,677,20.1,45.0,0.0,
Tagamanent - PN del Montseny,41.7476,2.3029,Vallès Oriental,1030,15.4,75.0,0.0,
Tarragona - Complex Educatiu,41.10392,1.201,Tarragonès,6,22.2,60.0,0.0,3.3
Terrassa,41.55363,1.99006,Vallès Occidental,314,20.8,64.0,0.0,4.6
Tivissa,41.04342,0.74029,Ribera d'Ebre,317,21.5,46.0,0.0,2.1
Torredembarra,41.14675,1.41843,Tarragonès,2,22.3,69.0,0.0,4.1
Torres de Segre,41.51908,0.55316,Segrià,215,23.3,44.0,0.0,
Torroella de Fluvià,42.18138,3.06207,Alt Empordà,7,21.2,58.0,0.0,
Torroella de Montgrí,42.02306,3.15719,Baix Empordà,4,19.9,62.0,0.0,
Torroja del Priorat,41.21629,0.79745,Priorat,301,24.5,31.0,0.0,
Tremp,42.16255,0.88811,Pallars Jussà,474,22.4,37.0,0.0,3.5
Tàrrega,41.66696,1.16229,Urgell,429,23.1,45.0,0.0,2.8
Tírvia,42.51881,1.24244,Pallars Sobirà,955,18.4,41.0,0.0,
Ulldecona - els Valentins,40.62653,0.3711,Montsià,211,23.5,41.0,0.0,
Ulldemolins,41.31999,0.8857,Priorat,687,20.0,37.0,0.0,3.6
Ulldeter (2.413 m),42.42102,2.24593,Ripollès,2413,2.6,96.0,0.2,4.5
Vacarisses,41.59251,1.91499,Vallès Occidental,343,20.1,66.0,0.1,
Vallfogona de Balaguer,41.78487,0.82939,Noguera,239,23.1,43.0,0.0,
Vallirana,41.38199,1.93565,Baix Llobregat,255,22.5,52.0,0.0,4.9
Vic,41.93498,2.23984,Osona,500,22.0,42.0,0.0,2.9
Vielha - Elipòrt,42.69737,0.80197,Val d'Aran,1029,14.4,60.0,0.0,
Vila-rodona,41.30727,1.3626,Alt Camp,286,23.3,42.0,0.0,
Viladecans - les Filipines,41.28797,2.04487,Baix Llobregat,2,21.5,66.0,0.0,
Viladrau,41.84008,2.41877,Osona,956,14.4,82.0,0.0,2.3
Vilafranca del Penedès - la Granada,41.36619,1.72859,Alt Penedès,240,23.7,43.0,0.0,5.4
Vilanova de Meià,41.99546,1.02569,Noguera,594,19.1,49.0,0.0,1.2
Vilanova de Segrià,41.71448,0.62838,Segrià,223,23.1,44.0,0.0,
Vilanova i la Geltrú,41.23578,1.73141,Garraf,32,22.8,55.0,0.0,3.9
Vinebre,41.18498,0.59374,Ribera d'Ebre,51,24.5,35.0,0.0,1.4
Vinyols i els Arcs - Cambrils,41.08015,1.06661,Baix Camp,30,23.6,54.0,0.0,
el Canós,41.68938,1.20383,Segarra,430,21.7,49.0,0.0,
el Masroig,41.1223,0.72182,Priorat,143,23.7,39.0,0.0,
el Montmell,41.34172,1.48769,Baix Penedès,547,24.4,43.0,0.0,
el Perelló,40.87289,0.71577,Baix Ebre,180,25.2,38.0,0.0,1.6
el Poal,41.6728,0.87743,Pla d'Urgell,224,22.5,51.0,0.0,
el Pont de Suert,42.39809,0.74364,Alta Ribagorça,824,20.2,37.0,0.0,2.9
el Port del Comte (2.288 m),42.19084,1.53213,Solsonès,2288,4.5,81.0,0.0,4.2
el Prat de Llobregat,41.34054,2.08019,Baix Llobregat,7,22.8,62.0,0.0,5.4
el Vendrell,41.21554,1.52117,Baix Penedès,59,24.2,47.0,0.0,3.4
els Alamús,41.59514,0.73515,Segrià,231,22.4,46.0,0.0,
els Alfacs,40.62725,0.6592,Montsià,1,23.8,53.0,0.0,
els Hostalets de Pierola,41.53107,1.80814,Anoia,318,22.7,41.0,0.0,2.0
l'Aldea,40.76946,0.61635,Baix Ebre,64,25.3,42.0,0.0,
l'Ametlla de Mar,40.9091,0.76943,Baix Ebre,94,22.3,49.0,0.0,
l'Espluga de Francolí,41.39242,1.09895,Conca de Barberà,446,20.4,48.0,0.0,2.2
la Bisbal d'Empordà,41.97752,3.03551,Baix Empordà,30,19.7,66.0,0.0,1.8
la Granadella,41.35991,0.66789,Garrigues,507,20.9,44.0,0.0,
la Llacuna,41.47785,1.53527,Anoia,585,20.2,47.0,0.0,
la Panadella,41.60257,1.4007,Anoia,783,17.9,54.0,0.0,3.5
la Pobla de Segur,42.24385,0.96801,Pallars Jussà,508,20.8,46.0,0.0,1.3
la Quar,42.08032,1.96244,Berguedà,872,19.1,42.0,0.0,3.7
la Seu d'Urgell - Bellestar,42.37083,1.43279,Alt Urgell,849,20.0,40.0,0.0,3.7
la Tallada d'Empordà,42.05394,3.06198,Baix Empordà,15,21.5,59.0,0.0,
la Tosa d'Alp (2.478 m),42.32213,1.89716,Cerdanya,2478,2.4,99.0,,6.0
la Vall d'en Bas,42.14557,2.4545,Garrotxa,461,18.9,70.0,0.0,
les Borges Blanques,41.51124,0.8561,Garrigues,283,22.6,50.0,0.0,2.4
les Cases d'Alcanar,40.55788,0.52329,Montsià,25,23.0,57.0,0.0,
Òdena,41.5864,1.65308,Anoia,333,21.5,46.0,0.0,1.6
