nom,lat,lon,comarca,altitud,temperatura,temp_max,temp_min,humitat,precipitacio,vent,data
Albesa,41.76034,0.67022,Noguera,268,25.2,36.6,23.1,75.0,0.0,,2026-07-13T21:00:00.000
Alcarràs,41.56505,0.55029,Segrià,125,25.2,37.1,20.6,75.0,0.0,,2026-07-13T21:00:00.000
Aldover,40.85936,0.50525,Baix Ebre,53,27.6,34.6,24.0,80.0,0.0,,2026-07-13T21:00:00.000
Alfarràs,41.81952,0.57767,Segrià,269,24.3,35.6,19.9,76.0,0.0,,2026-07-13T21:00:00.000
Algerri,41.80106,0.64801,Noguera,301,26.6,34.6,21.4,66.0,0.0,,2026-07-13T21:00:00.000
Alguaire,41.7428,0.53578,Segrià,371,25.9,34.4,23.8,66.0,0.0,2.2,2026-07-13T21:00:00.000
Alinyà,42.17427,1.42769,Alt Urgell,1161,25.0,31.2,20.4,42.0,0.0,,2026-07-13T21:00:00.000
Amposta,40.70776,0.63211,Montsià,3,26.3,29.8,25.0,93.0,0.0,1.8,2026-07-13T21:00:00.000
Anglesola - Tornabous,41.68834,1.04477,Urgell,292,25.8,34.9,21.2,72.0,0.0,,2026-07-13T21:00:00.000
Anglès,41.96093,2.6311,Selva,151,25.3,35.7,19.5,86.0,0.0,0.9,2026-07-13T21:00:00.000
Artés,41.79424,1.93683,Bages,287,25.9,35.9,19.5,71.0,0.0,,2026-07-13T21:00:00.000
Ascó,41.1964,0.51101,Ribera d'Ebre,258,25.2,34.5,23.1,92.0,0.0,,2026-07-13T21:00:00.000
Badalona - Museu,41.45215,2.24757,Barcelonès,42,26.2,27.4,25.5,87.0,0.0,,2026-07-13T21:00:00.000
Baldomar,41.92173,1.02901,Noguera,366,27.8,36.3,22.8,62.0,0.0,,2026-07-13T21:00:00.000
Banyoles,42.11655,2.78971,Pla de l'Estany,178,24.7,33.9,21.7,99.0,0.0,0.9,2026-07-13T21:00:00.000
Barcelona - Observatori Fabra,41.41864,2.12379,Barcelonès,410,24.2,30.8,22.6,93.0,0.0,0.9,2026-07-13T21:00:00.000
Barcelona - Zona Universitària,41.37922,2.10537,Barcelonès,82,26.1,29.9,25.5,90.0,0.0,0.1,2026-07-13T21:00:00.000
Barcelona - el Raval,41.38386,2.16774,Barcelonès,33,26.8,28.7,25.9,85.0,0.0,1.0,2026-07-13T21:00:00.000
Batea,41.08318,0.31694,Terra Alta,403,24.0,33.1,21.8,91.0,0.0,,2026-07-13T21:00:00.000
Benissanet,41.06303,0.6355,Ribera d'Ebre,34,27.3,33.4,22.8,77.0,0.0,2.9,2026-07-13T21:00:00.000
Blancafort,41.44237,1.15998,Conca de Barberà,437,22.9,32.9,20.5,98.0,0.0,,2026-07-13T21:00:00.000
Bonabé (1.691 m),42.75094,1.07527,Pallars Sobirà,1691,18.1,27.9,16.6,53.0,0.0,,2026-07-13T21:00:00.000
Bonaigua (2.262 m),42.64691,0.98486,Pallars Sobirà,2262,17.4,22.0,13.5,51.0,0.0,,2026-07-13T21:00:00.000
Boí (2.537 m),42.46603,0.88403,Alta Ribagorça,2537,14.8,18.6,11.2,59.0,0.0,,2026-07-13T21:00:00.000
Cabanes,42.32038,2.9564,Alt Empordà,35,25.3,33.8,19.0,88.0,0.0,,2026-07-13T21:00:00.000
Cabrils,41.51773,2.37702,Maresme,81,23.7,28.9,22.7,100.0,0.0,0.8,2026-07-13T21:00:00.000
Cadí Nord (2.145 m) - Prat d'Aguiló,42.29265,1.71498,Cerdanya,2145,18.3,22.8,15.2,48.0,0.0,3.1,2026-07-13T21:00:00.000
Caldes de Montbui,41.61264,2.1683,Vallès Oriental,177,24.4,34.1,21.7,83.0,0.0,0.0,2026-07-13T21:00:00.000
Camarasa,41.9178,0.88175,Noguera,669,25.6,34.3,24.1,67.0,0.0,,2026-07-13T21:00:00.000
Canaletes,41.48518,1.69341,Alt Penedès,325,23.7,32.9,21.7,95.0,0.0,,2026-07-13T21:00:00.000
Cantonigròs,42.04264,2.40474,Osona,927,21.7,30.0,20.4,84.0,0.0,2.1,2026-07-13T21:00:00.000
Canyelles,41.288,1.72201,Garraf,150,24.5,33.0,22.1,90.0,0.0,0.1,2026-07-13T21:00:00.000
Cardona,41.92044,1.69586,Bages,402,25.8,35.8,16.9,71.0,0.0,,2026-07-13T21:00:00.000
Cassà de la Selva,41.87448,2.92695,Gironès,178,24.5,33.5,16.6,90.0,0.0,,2026-07-13T21:00:00.000
Castell d'Aro,41.80855,3.03241,Baix Empordà,14,25.4,29.8,18.6,93.0,0.0,1.7,2026-07-13T21:00:00.000
Castellar de n'Hug - el Clot del Moro,42.25943,1.9761,Berguedà,940,23.0,33.4,14.8,54.0,0.0,,2026-07-13T21:00:00.000
Castellbisbal,41.47892,1.97546,Vallès Occidental,146,25.4,31.8,21.8,90.0,0.0,1.0,2026-07-13T21:00:00.000
Castellnou de Bages,41.83094,1.84699,Bages,507,23.7,35.5,21.3,84.0,0.0,2.3,2026-07-13T21:00:00.000
Castellnou de Seana,41.65662,0.95172,Pla d'Urgell,264,25.0,35.3,20.6,76.0,0.0,1.7,2026-07-13T21:00:00.000
Castelló d'Empúries,42.24726,3.09022,Alt Empordà,5,24.3,28.6,19.1,100.0,0.0,,2026-07-13T21:00:00.000
Certascan (2.398 m),42.7003,1.272,Pallars Sobirà,2398,16.2,20.2,13.5,54.0,0.0,,2026-07-13T21:00:00.000
Cervera,41.67556,1.2961,Segarra,556,24.2,34.6,22.4,81.0,0.0,3.4,2026-07-13T21:00:00.000
Constantí,41.1713,1.16774,Tarragonès,113,24.8,31.9,21.8,88.0,0.0,1.1,2026-07-13T21:00:00.000
Cunit,41.20187,1.63346,Baix Penedès,18,25.4,31.1,22.1,91.0,0.0,0.2,2026-07-13T21:00:00.000
Das - Aeròdrom,42.38603,1.86639,Cerdanya,1096,20.9,33.4,11.6,77.0,0.0,1.8,2026-07-13T21:00:00.000
Dosrius - PN Montnegre Corredor,41.61991,2.44532,Maresme,462,22.6,31.4,21.7,93.0,0.0,,2026-07-13T21:00:00.000
Espolla,42.38443,3.00739,Alt Empordà,84,23.9,33.9,17.7,87.0,0.0,,2026-07-13T21:00:00.000
Espot (2.519 m),42.5341,1.05474,Pallars Sobirà,2519,15.7,19.0,11.9,55.0,0.0,2.1,2026-07-13T21:00:00.000
Falset,41.15374,0.81952,Priorat,358,24.5,31.4,21.9,83.0,0.0,2.1,2026-07-13T21:00:00.000
Fogars de la Selva,41.73892,2.69438,Selva,42,24.8,34.1,17.8,91.0,0.0,,2026-07-13T21:00:00.000
Font-rubí,41.4329,1.62386,Alt Penedès,414,22.3,32.4,22.4,100.0,0.0,0.9,2026-07-13T21:00:00.000
Fornells de la Selva,41.91461,2.82071,Gironès,97,25.1,35.5,17.1,87.0,0.0,,2026-07-13T21:00:00.000
Gandesa,41.06564,0.43006,Terra Alta,351,25.4,32.8,22.5,81.0,0.0,,2026-07-13T21:00:00.000
Gimenells,41.65825,0.3932,Segrià,260,26.2,35.5,23.4,67.0,0.0,,2026-07-13T21:00:00.000
Girona,41.98215,2.80552,Gironès,72,25.3,35.8,17.8,90.0,0.0,1.0,2026-07-13T21:00:00.000
Gisclareny,42.26478,1.76216,Berguedà,1388,20.5,31.8,18.3,54.0,0.0,,2026-07-13T21:00:00.000
Golmés,41.63641,0.92445,Pla d'Urgell,260,24.3,35.9,21.3,81.0,0.0,,2026-07-13T21:00:00.000
Granollers,41.60929,2.29847,Vallès Oriental,211,25.1,33.4,23.0,87.0,0.0,,2026-07-13T21:00:00.000
Guardiola de Berguedà,42.23414,1.87485,Berguedà,787,24.1,35.6,13.4,52.0,0.0,0.4,2026-07-13T21:00:00.000
Guixers - Valls,42.13595,1.67297,Solsonès,845,21.1,33.6,12.3,59.0,0.0,,2026-07-13T21:00:00.000
Horta de Sant Joan,40.95134,0.30563,Terra Alta,517,25.5,31.9,21.4,73.0,0.0,0.9,2026-07-13T21:00:00.000
Illa de Buda,40.70717,0.83447,Montsià,1,26.2,29.6,25.7,96.0,0.0,1.8,2026-07-13T21:00:00.000
Lac Redon (2.245 m),42.63836,0.7789,Val d'Aran,2245,16.8,21.0,12.9,55.0,0.0,5.2,2026-07-13T21:00:00.000
Lladurs,42.08745,1.42792,Solsonès,786,25.2,35.1,20.5,50.0,0.0,,2026-07-13T21:00:00.000
Lleida - la Femosa,41.58449,0.64217,Segrià,170,26.7,37.5,22.5,66.0,0.0,1.0,2026-07-13T21:00:00.000
Maials,41.35741,0.4809,Segrià,350,24.7,35.3,19.7,75.0,0.0,,2026-07-13T21:00:00.000
Malgrat de Mar,41.64706,2.75659,Maresme,3,25.8,31.8,20.4,93.0,0.0,1.6,2026-07-13T21:00:00.000
Malniu (2.229 m),42.46605,1.7785,Cerdanya,2229,16.6,23.7,14.9,54.0,0.0,,2026-07-13T21:00:00.000
Margalef,41.28522,0.75387,Priorat,404,27.9,33.5,21.2,40.0,0.0,1.5,2026-07-13T21:00:00.000
Mas de Barberans,40.71822,0.39986,Montsià,241,25.6,31.5,23.7,89.0,0.0,2.5,2026-07-13T21:00:00.000
Massoteres,41.79405,1.30575,Segarra,512,25.4,35.7,22.8,75.0,0.0,2.0,2026-07-13T21:00:00.000
Mataró,41.54518,2.43322,Maresme,88,25.6,30.0,24.3,100.0,0.0,0.5,2026-07-13T21:00:00.000
Miami Platja,41.02066,0.9345,Baix Camp,43,25.7,30.0,24.9,94.0,0.0,1.1,2026-07-13T21:00:00.000
Mollerussa,41.61817,0.87182,Pla d'Urgell,246,25.1,35.8,22.8,71.0,0.0,,2026-07-13T21:00:00.000
Molló - Fabert,42.37718,2.41452,Ripollès,1405,18.5,28.4,18.1,95.0,0.0,1.9,2026-07-13T21:00:00.000
Montesquiu,42.11479,2.21481,Osona,683,24.6,36.6,18.0,78.0,0.0,,2026-07-13T21:00:00.000
Montsec d'Ares (1.571 m),42.0513,0.72952,Pallars Jussà,1571,21.1,25.0,19.0,66.0,0.0,3.4,2026-07-13T21:00:00.000
Montserrat - Sant Dimes,41.59539,1.8375,Bages,918,24.0,27.0,20.9,58.0,0.0,,2026-07-13T20:00:00.000
Muntanyola,41.8781,2.17875,Osona,816,23.9,32.0,20.2,74.0,0.0,0.6,2026-07-13T21:00:00.000
Navata,42.22792,2.86242,Alt Empordà,152,24.1,31.9,20.0,100.0,0.0,0.8,2026-07-13T21:00:00.000
Nulles,41.25095,1.29863,Alt Camp,239,24.0,33.9,20.9,100.0,0.0,,2026-07-13T21:00:00.000
Núria (1.971 m),42.39848,2.15517,Ripollès,1971,16.1,23.8,13.5,60.0,0.0,0.9,2026-07-13T21:00:00.000
Oliana,42.07683,1.31489,Alt Urgell,491,25.9,36.3,19.9,45.0,0.0,,2026-07-13T21:00:00.000
Oliola,41.87694,1.1541,Noguera,444,26.1,36.6,20.9,73.0,0.0,,2026-07-13T21:00:00.000
Olot,42.18811,2.47094,Garrotxa,435,23.4,34.6,16.7,85.0,0.0,1.8,2026-07-13T21:00:00.000
Organyà,42.21622,1.33133,Alt Urgell,568,25.8,36.6,17.5,48.0,0.0,1.0,2026-07-13T21:00:00.000
Orís,42.07397,2.20865,Osona,627,24.7,34.4,17.8,75.0,0.0,0.6,2026-07-13T21:00:00.000
Os de Balaguer - el Monestir d'Avellanes,41.87912,0.76103,Noguera,577,25.2,35.4,22.1,72.0,0.0,,2026-07-13T21:00:00.000
PN del Garraf - el Rascler,41.28833,1.90773,Baix Llobregat,573,22.1,29.5,21.4,97.0,0.0,,2026-07-13T21:00:00.000
PN dels Ports,40.79705,0.31822,Baix Ebre,1056,22.5,26.9,21.5,81.0,0.0,1.9,2026-07-13T21:00:00.000
Palafrugell,41.90694,3.16073,Baix Empordà,35,25.3,29.7,16.7,91.0,0.0,2.2,2026-07-13T21:00:00.000
Pantà de Darnius - Boadella,42.34214,2.83425,Alt Empordà,159,24.9,33.6,20.0,83.0,0.0,0.7,2026-07-13T21:00:00.000
Pantà de Riba-roja,41.2441,0.4327,Ribera d'Ebre,77,27.4,34.7,23.7,76.0,0.0,,2026-07-13T21:00:00.000
Pantà de Siurana,41.2508,0.91063,Priorat,503,23.0,32.0,20.1,73.0,0.0,1.6,2026-07-13T21:00:00.000
Parets del Vallès,41.5673,2.22615,Vallès Oriental,118,26.4,32.9,22.7,84.0,0.0,1.0,2026-07-13T21:00:00.000
Perafita,42.03947,2.11993,Lluçanès,777,23.5,32.9,19.6,74.0,0.0,0.7,2026-07-13T21:00:00.000
Pinós,41.80483,1.53853,Solsonès,660,23.5,34.0,19.9,79.0,0.0,,2026-07-13T21:00:00.000
Port de Barcelona - ZAL Prat,41.31928,2.1372,Baix Llobregat,5,26.7,29.0,25.5,86.0,0.0,1.3,2026-07-13T21:00:00.000
Portbou - coll dels Belitres,42.43514,3.16619,Alt Empordà,198,23.4,28.6,22.2,97.0,0.0,5.2,2026-07-13T21:00:00.000
Prades,41.31481,0.98161,Baix Camp,927,19.6,29.2,15.8,58.0,0.0,,2026-07-13T21:00:00.000
Puig Sesolles (1.666 m),41.77362,2.43774,Vallès Oriental,1666,20.9,26.2,16.9,31.0,0.0,3.7,2026-07-13T21:00:00.000
Puigcerdà,42.44013,1.93482,Cerdanya,1214,20.6,31.3,15.8,79.0,0.0,1.5,2026-07-13T21:00:00.000
Pujalt,41.71735,1.42404,Anoia,748,23.1,32.0,21.2,82.0,0.0,5.5,2026-07-13T21:00:00.000
Raimat,41.68325,0.44871,Segrià,286,26.0,35.4,24.3,67.0,0.0,2.8,2026-07-13T21:00:00.000
Rellinars,41.63285,1.91718,Vallès Occidental,429,24.2,33.6,19.4,81.0,0.0,,2026-07-13T21:00:00.000
Riudecanyes,41.12267,0.96958,Baix Camp,171,24.7,33.5,22.4,91.0,0.0,0.5,2026-07-13T21:00:00.000
Roses,42.27068,3.18147,Alt Empordà,23,25.6,31.8,22.0,98.0,0.0,3.5,2026-07-13T21:00:00.000
Sabadell - Parc Agrari,41.56568,2.06955,Vallès Occidental,259,23.6,31.5,22.2,100.0,0.0,0.7,2026-07-13T21:00:00.000
Salòria (2.451 m),42.51939,1.36597,Pallars Sobirà,2451,16.4,20.0,12.8,51.0,0.0,3.2,2026-07-13T21:00:00.000
Sant Cugat del Vallès - CAR,41.48318,2.07947,Vallès Occidental,157,24.8,32.2,21.1,90.0,0.0,0.5,2026-07-13T21:00:00.000
Sant Llorenç Savall,41.68136,2.02655,Vallès Occidental,530,22.6,31.7,16.6,100.0,0.0,0.3,2026-07-13T21:00:00.000
Sant Martí Sarroca,41.37492,1.6303,Alt Penedès,257,23.0,33.1,22.0,92.0,0.0,,2026-07-13T21:00:00.000
Sant Martí de Riucorb,41.57236,1.0882,Urgell,414,25.6,35.1,23.2,68.0,0.0,,2026-07-13T21:00:00.000
Sant Pau de Segúries,42.25835,2.36426,Ripollès,853,20.1,30.3,13.7,86.0,0.0,0.2,2026-07-13T21:00:00.000
Sant Pere Pescador,42.17716,3.0968,Alt Empordà,3,24.0,28.2,17.9,100.0,0.0,0.7,2026-07-13T21:00:00.000
Sant Pere de Ribes - PN del Garraf,41.27861,1.80478,Garraf,164,24.6,33.4,23.0,91.0,0.0,,2026-07-13T21:00:00.000
Sant Romà d'Abella,42.13922,1.03894,Pallars Jussà,689,27.2,35.3,22.0,59.0,0.0,5.4,2026-07-13T21:00:00.000
Sant Sadurní d'Anoia,41.4353,1.79322,Alt Penedès,155,25.3,33.7,19.6,84.0,0.0,,2026-07-13T21:00:00.000
Sant Salvador de Guardiola,41.67403,1.76797,Bages,347,24.2,35.6,17.6,82.0,0.0,0.2,2026-07-13T21:00:00.000
Santa Coloma de Farners,41.86491,2.66444,Selva,165,24.8,35.2,20.1,88.0,0.0,1.4,2026-07-13T21:00:00.000
Santa Coloma de Queralt,41.52879,1.3683,Conca de Barberà,709,20.6,33.0,19.9,97.0,0.0,,2026-07-13T21:00:00.000
Santuari de Queralt,42.10736,1.8267,Berguedà,1169,22.2,32.6,21.4,68.0,0.0,1.8,2026-07-13T21:00:00.000
Sasseuva (2.226 m),42.77011,0.73198,Val d'Aran,2226,16.3,22.0,14.8,61.0,0.0,,2026-07-13T21:00:00.000
Seròs,41.46373,0.42766,Segrià,89,27.4,37.9,19.2,65.0,0.0,,2026-07-13T21:00:00.000
Solsona,41.98762,1.51159,Solsonès,692,25.1,35.6,18.1,67.0,0.0,1.6,2026-07-13T21:00:00.000
Sort,42.40537,1.12997,Pallars Sobirà,677,22.5,34.2,13.8,64.0,0.0,,2026-07-13T21:00:00.000
Tagamanent - PN del Montseny,41.7476,2.3029,Vallès Oriental,1030,23.4,30.2,20.3,61.0,0.0,,2026-07-13T21:00:00.000
Tarragona - Complex Educatiu,41.10392,1.201,Tarragonès,6,26.1,30.2,24.5,97.0,0.0,1.1,2026-07-13T21:00:00.000
Terrassa,41.55363,1.99006,Vallès Occidental,314,24.3,30.8,22.3,100.0,0.0,1.4,2026-07-13T21:00:00.000
Tivissa,41.04342,0.74029,Ribera d'Ebre,317,24.6,32.7,22.9,81.0,0.0,3.0,2026-07-13T21:00:00.000
Torredembarra,41.14675,1.41843,Tarragonès,2,25.8,30.4,24.8,100.0,0.0,1.1,2026-07-13T21:00:00.000
Torres de Segre,41.51908,0.55316,Segrià,215,27.1,36.6,23.1,62.0,0.0,,2026-07-13T21:00:00.000
Torroella de Fluvià,42.18138,3.06207,Alt Empordà,7,23.7,29.2,17.9,100.0,0.0,,2026-07-13T21:00:00.000
Torroella de Montgrí,42.02306,3.15719,Baix Empordà,4,24.5,28.7,17.8,100.0,0.0,,2026-07-13T21:00:00.000
Torroja del Priorat,41.21629,0.79745,Priorat,301,24.9,34.0,22.2,77.0,0.0,,2026-07-13T21:00:00.000
Tremp,42.16255,0.88811,Pallars Jussà,474,26.5,36.1,20.1,50.0,0.0,0.8,2026-07-13T21:00:00.000
Tàrrega,41.66696,1.16229,Urgell,429,26.3,37.2,23.9,66.0,0.0,4.6,2026-07-13T21:00:00.000
Tírvia,42.51881,1.24244,Pallars Sobirà,955,25.7,34.0,15.2,37.0,0.0,,2026-07-13T21:00:00.000
Ulldecona - els Valentins,40.62653,0.3711,Montsià,211,25.3,32.9,22.6,90.0,0.0,,2026-07-13T21:00:00.000
Ulldemolins,41.31999,0.8857,Priorat,687,24.9,31.0,20.5,46.0,0.0,5.0,2026-07-13T21:00:00.000
Ulldeter (2.413 m),42.42102,2.24593,Ripollès,2413,15.3,19.1,14.9,58.0,0.0,2.8,2026-07-13T21:00:00.000
Vacarisses,41.59251,1.91499,Vallès Occidental,343,24.4,32.4,19.1,94.0,0.0,,2026-07-13T21:00:00.000
Vallfogona de Balaguer,41.78487,0.82939,Noguera,239,26.5,36.4,23.8,73.0,0.0,,2026-07-13T21:00:00.000
Vallirana,41.38199,1.93565,Baix Llobregat,255,24.2,32.8,22.0,87.0,0.0,0.5,2026-07-13T21:00:00.000
Vic,41.93498,2.23984,Osona,500,24.9,34.9,18.1,84.0,0.0,1.1,2026-07-13T21:00:00.000
Vielha - Elipòrt,42.69737,0.80197,Val d'Aran,1029,19.8,34.6,18.0,80.0,0.0,,2026-07-13T21:00:00.000
Vila-rodona,41.30727,1.3626,Alt Camp,286,23.6,33.1,22.1,94.0,0.0,,2026-07-13T21:00:00.000
Viladecans - les Filipines,41.28797,2.04487,Baix Llobregat,2,24.1,30.2,22.6,93.0,0.0,,2026-07-13T21:00:00.000
Viladrau,41.84008,2.41877,Osona,956,20.2,29.8,17.9,97.0,0.0,0.4,2026-07-13T21:00:00.000
Vilafranca del Penedès - la Granada,41.36619,1.72859,Alt Penedès,240,24.6,32.8,21.1,87.0,0.0,1.5,2026-07-13T21:00:00.000
Vilanova de Meià,41.99546,1.02569,Noguera,594,25.6,36.3,21.8,64.0,0.0,0.3,2026-07-13T21:00:00.000
Vilanova de Segrià,41.71448,0.62838,Segrià,223,26.1,36.3,23.4,71.0,0.0,,2026-07-13T21:00:00.000
Vilanova i la Geltrú,41.23578,1.73141,Garraf,32,26.0,31.9,23.8,89.0,0.0,0.7,2026-07-13T21:00:00.000
Vinebre,41.18498,0.59374,Ribera d'Ebre,51,27.1,36.7,22.6,70.0,0.0,2.6,2026-07-13T21:00:00.000
Vinyols i els Arcs - Cambrils,41.08015,1.06661,Baix Camp,30,24.5,31.4,22.9,94.0,0.0,,2026-07-13T21:00:00.000
el Canós,41.68938,1.20383,Segarra,430,26.5,35.9,23.4,67.0,0.0,,2026-07-13T21:00:00.000
el Masroig,41.1223,0.72182,Priorat,143,26.0,33.6,21.0,76.0,0.0,,2026-07-13T21:00:00.000
el Montmell,41.34172,1.48769,Baix Penedès,547,20.8,35.1,20.6,96.0,0.0,,2026-07-13T21:00:00.000
el Perelló,40.87289,0.71577,Baix Ebre,180,25.8,31.3,24.4,94.0,0.0,1.7,2026-07-13T21:00:00.000
el Poal,41.6728,0.87743,Pla d'Urgell,224,23.9,36.6,20.8,84.0,0.0,,2026-07-13T21:00:00.000
el Pont de Suert,42.39809,0.74364,Alta Ribagorça,824,20.4,33.9,11.6,63.0,0.0,0.4,2026-07-13T21:00:00.000
el Port del Comte (2.288 m),42.19084,1.53213,Solsonès,2288,16.0,19.5,13.7,58.0,0.0,1.9,2026-07-13T21:00:00.000
el Prat de Llobregat,41.34054,2.08019,Baix Llobregat,7,25.4,31.0,21.6,93.0,0.0,0.4,2026-07-13T21:00:00.000
el Vendrell,41.21554,1.52117,Baix Penedès,59,24.5,31.6,23.1,89.0,0.0,0.9,2026-07-13T21:00:00.000
els Alamús,41.59514,0.73515,Segrià,231,25.3,35.2,21.1,69.0,0.0,,2026-07-13T21:00:00.000
els Alfacs,40.62725,0.6592,Montsià,1,28.3,29.8,25.4,83.0,0.0,,2026-07-13T21:00:00.000
els Hostalets de Pierola,41.53107,1.80814,Anoia,318,24.7,32.2,21.6,95.0,0.0,1.4,2026-07-13T21:00:00.000
l'Aldea,40.76946,0.61635,Baix Ebre,64,26.9,31.3,25.3,91.0,0.0,,2026-07-13T21:00:00.000
l'Ametlla de Mar,40.9091,0.76943,Baix Ebre,94,25.9,30.4,24.4,91.0,0.0,,2026-07-13T21:00:00.000
l'Espluga de Francolí,41.39242,1.09895,Conca de Barberà,446,23.3,32.1,20.2,100.0,0.0,3.2,2026-07-13T21:00:00.000
la Bisbal d'Empordà,41.97752,3.03551,Baix Empordà,30,24.9,31.7,18.0,95.0,0.0,1.1,2026-07-13T21:00:00.000
la Bisbal del Penedès,41.27151,1.46717,Baix Penedès,185,23.7,32.2,20.2,98.0,0.0,,2026-07-13T21:00:00.000
la Granadella,41.35991,0.66789,Garrigues,507,24.1,33.5,19.5,75.0,0.0,,2026-07-13T21:00:00.000
la Llacuna,41.47785,1.53527,Anoia,585,21.0,31.8,16.9,81.0,0.0,,2026-07-13T21:00:00.000
la Panadella,41.60257,1.4007,Anoia,783,21.6,31.3,20.1,89.0,0.0,2.6,2026-07-13T21:00:00.000
la Pobla de Segur,42.24385,0.96801,Pallars Jussà,508,25.5,36.1,19.1,55.0,0.0,1.0,2026-07-13T21:00:00.000
la Quar,42.08032,1.96244,Berguedà,872,23.1,35.7,19.6,69.0,0.0,1.6,2026-07-13T21:00:00.000
la Seu d'Urgell - Bellestar,42.37083,1.43279,Alt Urgell,849,26.2,34.6,17.3,40.0,0.0,0.4,2026-07-13T21:00:00.000
la Tallada d'Empordà,42.05394,3.06198,Baix Empordà,15,24.5,30.9,18.3,100.0,0.0,,2026-07-13T21:00:00.000
la Tosa d'Alp (2.478 m),42.32213,1.89716,Cerdanya,2478,14.8,18.0,13.2,65.0,,2.9,2026-07-13T21:00:00.000
la Vall d'en Bas,42.14557,2.4545,Garrotxa,461,23.0,33.6,15.9,81.0,0.0,,2026-07-13T21:00:00.000
les Borges Blanques,41.51124,0.8561,Garrigues,283,25.5,35.1,20.8,77.0,0.0,3.0,2026-07-13T21:00:00.000
les Cases d'Alcanar,40.55788,0.52329,Montsià,25,25.7,30.7,24.9,92.0,0.0,,2026-07-13T21:00:00.000
Òdena,41.5864,1.65308,Anoia,333,24.1,35.1,19.8,82.0,0.0,1.6,2026-07-13T21:00:00.000
